[
  {
    "source": "osm",
    "external_id": "osm:node:1219353012",
    "name": "Hult's",
    "lat": 37.2281279,
    "lng": -121.9799767,
    "address": null,
    "phone": null,
    "website": null,
    "category_hint": "restaurant",
    "confidence": 0.6,
    "raw_payload": {
      "id": 1219353012,
      "type": "node",
      "lat": 37.2281279,
      "lon": -121.9799767,
      "tags": {
        "amenity": "restaurant",
        "cuisine": "regional",
        "name": "Hult's"
      }
    }
  },
  {
    "source": "osm",
    "external_id": "osm:node:2082760441",
    "name": "7-Eleven",
    "lat": 37.2207369,
    "lng": -121.9750952,
    "address": "280 East Main Street Los Gatos",
    "phone": "+14083548280",
    "website": "https://www.7-eleven.com/locations/ca/los-gatos/280-east-main-st-14211",
    "category_hint": "convenience",
    "confidence": 0.6,
    "raw_payload": {
      "id": 2082760441,
      "type": "node",
      "lat": 37.2207369,
      "lon": -121.9750952,
      "tags": {
        "addr:city": "Los Gatos",
        "addr:housenumber": "280",
        "addr:postcode": "95030",
        "addr:state": "CA",
        "addr:street": "East Main Street",
        "atm": "yes",
        "brand": "7-Eleven",
        "brand:wikidata": "Q259340",
        "delivery": "yes",
        "fast_food": "yes",
        "fuel:propane": "yes",
        "name": "7-Eleven",
        "phone": "+1 408-354-8280",
        "ref": "14211",
        "shop": "convenience",
        "website": "https://www.7-eleven.com/locations/ca/los-gatos/280-east-main-st-14211"
      }
    }
  },
  {
    "source": "osm",
    "external_id": "osm:node:4896285245",
    "name": "Cafe Dio",
    "lat": 37.221274,
    "lng": -121.977329,
    "address": "151 East Main Street Los Gatos",
    "phone": null,
    "website": null,
    "category_hint": "cafe",
    "confidence": 0.6,
    "raw_payload": {
      "id": 4896285245,
      "type": "node",
      "lat": 37.221274,
      "lon": -121.977329,
      "tags": {
        "addr:city": "Los Gatos",
        "addr:country": "US",
        "addr:housenumber": "151",
        "addr:postcode": "95030",
        "addr:state": "CA",
        "addr:street": "East Main Street",
        "amenity": "cafe",
        "name": "Cafe Dio"
      }
    }
  },
  {
    "source": "osm",
    "external_id": "osm:node:5417353724",
    "name": "Asa",
    "lat": 37.226579,
    "lng": -121.9721,
    "address": "57 Los Gatos-Saratoga Road Los Gatos",
    "phone": null,
    "website": null,
    "category_hint": "restaurant",
    "confidence": 0.6,
    "raw_payload": {
      "id": 5417353724,
      "type": "node",
      "lat": 37.226579,
      "lon": -121.9721,
      "tags": {
        "addr:city": "Los Gatos",
        "addr:housenumber": "57",
        "addr:postcode": "95032",
        "addr:state": "CA",
        "addr:street": "Los Gatos-Saratoga Road",
        "amenity": "restaurant",
        "cuisine": "american",
        "name": "Asa",
        "old_name": "Grill 57",
        "operator": "Asa Los Gatos LLC"
      }
    }
  },
  {
    "source": "osm",
    "external_id": "osm:node:9024076256",
    "name": "PintxoPote",
    "lat": 37.2298458,
    "lng": -121.9798612,
    "address": "424 North Santa Cruz Avenue Los Gatos",
    "phone": "+14087978688",
    "website": "https://www.pintxopote-tapas.com/",
    "category_hint": "restaurant",
    "confidence": 0.6,
    "raw_payload": {
      "id": 9024076256,
      "type": "node",
      "lat": 37.2298458,
      "lon": -121.9798612,
      "tags": {
        "addr:city": "Los Gatos",
        "addr:housenumber": "424",
        "addr:postcode": "95030",
        "addr:state": "CA",
        "addr:street": "North Santa Cruz Avenue",
        "amenity": "restaurant",
        "cuisine": "tapas;basque;spanish",
        "name": "PintxoPote",
        "phone": "+1-408-797-8688",
        "website": "https://www.pintxopote-tapas.com/"
      }
    }
  },
  {
    "source": "osm",
    "external_id": "osm:node:1048736771",
    "name": "Amato Pizza",
    "lat": 37.2297365,
    "lng": -121.884812,
    "address": "6081 Meridian Avenue San Jose",
    "phone": "+14089977727",
    "website": null,
    "category_hint": "restaurant",
    "confidence": 0.6,
    "raw_payload": {
      "id": 1048736771,
      "type": "node",
      "lat": 37.2297365,
      "lon": -121.884812,
      "tags": {
        "addr:city": "San Jose",
        "addr:housenumber": "6081",
        "addr:postcode": "95120",
        "addr:street": "Meridian Avenue",
        "addr:unit": "60",
        "amenity": "restaurant",
        "cuisine": "pizza",
        "name": "Amato Pizza",
        "phone": "+1-408-997-7727"
      }
    }
  },
  {
    "source": "osm",
    "external_id": "osm:node:1048792178",
    "name": "Starbucks",
    "lat": 37.2198164,
    "lng": -121.8618324,
    "address": "6471-90 Almaden Expressway San Jose",
    "phone": "+14083239511",
    "website": "https://www.starbucks.com/store-locator/store/13316/almaden-center-san-jose-6471-90-almaden-expressway-san-jose-ca-951202925-u",
    "category_hint": "cafe",
    "confidence": 0.6,
    "raw_payload": {
      "id": 1048792178,
      "type": "node",
      "lat": 37.2198164,
      "lon": -121.8618324,
      "tags": {
        "addr:city": "San Jose",
        "addr:housenumber": "6471-90",
        "addr:postcode": "95120",
        "addr:state": "CA",
        "addr:street": "Almaden Expressway",
        "amenity": "cafe",
        "branch": "Almaden Center - San Jose",
        "brand": "Starbucks",
        "brand:wikidata": "Q37158",
        "cuisine": "coffee_shop",
        "name": "Starbucks",
        "official_name": "Starbucks Coffee",
        "phone": "+1 408-323-9511",
        "ref": "13316",
        "takeaway": "yes",
        "website": "https://www.starbucks.com/store-locator/store/13316/almaden-center-san-jose-6471-90-almaden-expressway-san-jose-ca-951202925-u"
      }
    }
  },
  {
    "source": "osm",
    "external_id": "osm:node:1048792302",
    "name": "Posh Bagels",
    "lat": 37.2198548,
    "lng": -121.8619182,
    "address": null,
    "phone": null,
    "website": null,
    "category_hint": "cafe",
    "confidence": 0.6,
    "raw_payload": {
      "id": 1048792302,
      "type": "node",
      "lat": 37.2198548,
      "lon": -121.8619182,
      "tags": {
        "amenity": "cafe",
        "cuisine": "bagel",
        "name": "Posh Bagels"
      }
    }
  },
  {
    "source": "osm",
    "external_id": "osm:node:1149340403",
    "name": "Baskin-Robbins",
    "lat": 37.2204883,
    "lng": -121.8621246,
    "address": "6467 Almaden Expressway San Jose",
    "phone": "+14089277318",
    "website": "https://locations.baskinrobbins.com/ca/san-jose/6467-almaden-expy-361211-br",
    "category_hint": "ice_cream",
    "confidence": 0.6,
    "raw_payload": {
      "id": 1149340403,
      "type": "node",
      "lat": 37.2204883,
      "lon": -121.8621246,
      "tags": {
        "addr:city": "San Jose",
        "addr:housenumber": "6467",
        "addr:postcode": "95120",
        "addr:state": "CA",
        "addr:street": "Almaden Expressway",
        "addr:unit": "70",
        "amenity": "ice_cream",
        "brand": "Baskin-Robbins",
        "brand:wikidata": "Q584601",
        "cuisine": "ice_cream",
        "name": "Baskin-Robbins",
        "opening_hours": "11:00-22:00",
        "operator": "S&S-BR",
        "phone": "+1 408-927-7318",
        "website": "https://locations.baskinrobbins.com/ca/san-jose/6467-almaden-expy-361211-br"
      }
    }
  },
  {
    "source": "osm",
    "external_id": "osm:node:1174970183",
    "name": "Burger King",
    "lat": 37.2207903,
    "lng": -121.861821,
    "address": "6477 Almaden Road San Jose",
    "phone": "+14089972817",
    "website": "https://www.bk.com/store-locator/store/restaurant_4132",
    "category_hint": "fast_food",
    "confidence": 0.6,
    "raw_payload": {
      "id": 1174970183,
      "type": "node",
      "lat": 37.2207903,
      "lon": -121.861821,
      "tags": {
        "addr:city": "San Jose",
        "addr:housenumber": "6477",
        "addr:postcode": "95120-2918",
        "addr:state": "CA",
        "addr:street": "Almaden Road",
        "addr:unit": "D-1a",
        "amenity": "fast_food",
        "brand": "Burger King",
        "brand:wikidata": "Q177054",
        "cuisine": "burger",
        "delivery": "yes",
        "internet_access": "wlan",
        "name": "Burger King",
        "opening_hours": "Mo-Fr 08:00-21:00; Sa-Su 08:00-20:00",
        "phone": "+1 408-997-2817",
        "ref": "7196",
        "takeaway": "yes",
        "website": "https://www.bk.com/store-locator/store/restaurant_4132"
      }
    }
  },
  {
    "source": "osm",
    "external_id": "osm:node:2068009989",
    "name": "Lucky",
    "lat": 37.2288852,
    "lng": -121.8858459,
    "address": "6109 Meridian Avenue San Jose",
    "phone": null,
    "website": "https://www.luckysupermarkets.com/index.php?req=bins_view&id=39",
    "category_hint": "supermarket",
    "confidence": 0.6,
    "raw_payload": {
      "id": 2068009989,
      "type": "node",
      "lat": 37.2288852,
      "lon": -121.8858459,
      "tags": {
        "addr:city": "San Jose",
        "addr:housenumber": "6109",
        "addr:postcode": "95120",
        "addr:street": "Meridian Avenue",
        "brand": "Lucky",
        "brand:wikidata": "Q6698032",
        "name": "Lucky",
        "shop": "supermarket",
        "website": "https://www.luckysupermarkets.com/index.php?req=bins_view&id=39"
      }
    }
  },
  {
    "source": "osm",
    "external_id": "osm:node:2091189218",
    "name": "Togo's",
    "lat": 37.2202734,
    "lng": -121.862347,
    "address": null,
    "phone": null,
    "website": null,
    "category_hint": "fast_food",
    "confidence": 0.6,
    "raw_payload": {
      "id": 2091189218,
      "type": "node",
      "lat": 37.2202734,
      "lon": -121.862347,
      "tags": {
        "amenity": "fast_food",
        "brand": "Togo's",
        "brand:wikidata": "Q3530375",
        "cuisine": "sandwich",
        "name": "Togo's",
        "takeaway": "yes"
      }
    }
  },
  {
    "source": "osm",
    "external_id": "osm:node:2091189234",
    "name": "Maple Leaf Donuts",
    "lat": 37.2202478,
    "lng": -121.862291,
    "address": null,
    "phone": null,
    "website": null,
    "category_hint": "cafe",
    "confidence": 0.6,
    "raw_payload": {
      "id": 2091189234,
      "type": "node",
      "lat": 37.2202478,
      "lon": -121.862291,
      "tags": {
        "amenity": "cafe",
        "cuisine": "donut",
        "name": "Maple Leaf Donuts"
      }
    }
  },
  {
    "source": "osm",
    "external_id": "osm:node:2091189244",
    "name": "Tacos al Pastor",
    "lat": 37.2203119,
    "lng": -121.8623875,
    "address": null,
    "phone": null,
    "website": null,
    "category_hint": "fast_food",
    "confidence": 0.6,
    "raw_payload": {
      "id": 2091189244,
      "type": "node",
      "lat": 37.2203119,
      "lon": -121.8623875,
      "tags": {
        "amenity": "fast_food",
        "cuisine": "mexican",
        "name": "Tacos al Pastor"
      }
    }
  },
  {
    "source": "osm",
    "external_id": "osm:node:2091208065",
    "name": "Anas Bakery",
    "lat": 37.2298576,
    "lng": -121.8722588,
    "address": "1175 Redmond Avenue San Jose",
    "phone": null,
    "website": null,
    "category_hint": "bakery",
    "confidence": 0.6,
    "raw_payload": {
      "id": 2091208065,
      "type": "node",
      "lat": 37.2298576,
      "lon": -121.8722588,
      "tags": {
        "addr:city": "San Jose",
        "addr:housenumber": "1175",
        "addr:postcode": "95120",
        "addr:state": "CA",
        "addr:street": "Redmond Avenue",
        "disused:amenity": "ice_cream",
        "disused:cuisine": "yogurt",
        "name": "Anas Bakery",
        "old_name": "Yogurt Village",
        "shop": "bakery"
      }
    }
  },
  {
    "source": "osm",
    "external_id": "osm:node:2091208078",
    "name": "Charlie’s Cheesecake Works",
    "lat": 37.2297359,
    "lng": -121.8722538,
    "address": "1179 Redmond Avenue San Jose",
    "phone": null,
    "website": "https://www.charliescheesecakeworks.com/",
    "category_hint": "confectionery",
    "confidence": 0.6,
    "raw_payload": {
      "id": 2091208078,
      "type": "node",
      "lat": 37.2297359,
      "lon": -121.8722538,
      "tags": {
        "addr:city": "San Jose",
        "addr:housenumber": "1179",
        "addr:postcode": "95120",
        "addr:state": "CA",
        "addr:street": "Redmond Avenue",
        "name": "Charlie’s Cheesecake Works",
        "operator": "McMajor Enterprises Incorporated",
        "shop": "confectionery",
        "website": "https://www.charliescheesecakeworks.com/"
      }
    }
  },
  {
    "source": "osm",
    "external_id": "osm:node:2091208084",
    "name": "MJ Market",
    "lat": 37.2295298,
    "lng": -121.872242,
    "address": "1187 Redmond Avenue San Jose",
    "phone": null,
    "website": null,
    "category_hint": "convenience",
    "confidence": 0.6,
    "raw_payload": {
      "id": 2091208084,
      "type": "node",
      "lat": 37.2295298,
      "lon": -121.872242,
      "tags": {
        "addr:city": "San Jose",
        "addr:housenumber": "1187",
        "addr:postcode": "95120",
        "addr:street": "Redmond Avenue",
        "name": "MJ Market",
        "shop": "convenience"
      }
    }
  },
  {
    "source": "osm",
    "external_id": "osm:node:3590407932",
    "name": "Almaden Sushi",
    "lat": 37.2199979,
    "lng": -121.861959,
    "address": "6471 Almaden Expressway San Jose",
    "phone": null,
    "website": null,
    "category_hint": "restaurant",
    "confidence": 0.6,
    "raw_payload": {
      "id": 3590407932,
      "type": "node",
      "lat": 37.2199979,
      "lon": -121.861959,
      "tags": {
        "addr:city": "San Jose",
        "addr:housenumber": "6471",
        "addr:postcode": "95120",
        "addr:state": "CA",
        "addr:street": "Almaden Expressway",
        "amenity": "restaurant",
        "cuisine": "japanese",
        "name": "Almaden Sushi",
        "opening_hours": "Mo-Th 11:00-14:00, 17:00-21:30; Fr,Sa 11:00-14:00, 17:00-22:00; Su off"
      }
    }
  },
  {
    "source": "osm",
    "external_id": "osm:node:3590418765",
    "name": "Lee's Village",
    "lat": 37.2199849,
    "lng": -121.8618961,
    "address": "6477 Almaden Expressway San Jose",
    "phone": null,
    "website": null,
    "category_hint": "restaurant",
    "confidence": 0.6,
    "raw_payload": {
      "id": 3590418765,
      "type": "node",
      "lat": 37.2199849,
      "lon": -121.8618961,
      "tags": {
        "addr:city": "San Jose",
        "addr:housenumber": "6477",
        "addr:postcode": "95120",
        "addr:state": "CA",
        "addr:street": "Almaden Expressway",
        "amenity": "restaurant",
        "cuisine": "chinese",
        "name": "Lee's Village"
      }
    }
  },
  {
    "source": "osm",
    "external_id": "osm:node:3597231075",
    "name": "Yummy Mexican Food!",
    "lat": 37.2204295,
    "lng": -121.8625463,
    "address": null,
    "phone": null,
    "website": null,
    "category_hint": "restaurant",
    "confidence": 0.6,
    "raw_payload": {
      "id": 3597231075,
      "type": "node",
      "lat": 37.2204295,
      "lon": -121.8625463,
      "tags": {
        "amenity": "restaurant",
        "name": "Yummy Mexican Food!"
      }
    }
  },
  {
    "source": "osm",
    "external_id": "osm:node:7360494841",
    "name": "Elements",
    "lat": 37.2201679,
    "lng": -121.8621666,
    "address": null,
    "phone": null,
    "website": null,
    "category_hint": "restaurant",
    "confidence": 0.6,
    "raw_payload": {
      "id": 7360494841,
      "type": "node",
      "lat": 37.2201679,
      "lon": -121.8621666,
      "tags": {
        "amenity": "restaurant",
        "cuisine": "vietnamese",
        "name": "Elements"
      }
    }
  },
  {
    "source": "osm",
    "external_id": "osm:node:8178007061",
    "name": "Almaden Center 76",
    "lat": 37.2210688,
    "lng": -121.8623919,
    "address": "6499 Camden Avenue San Jose",
    "phone": null,
    "website": null,
    "category_hint": "convenience",
    "confidence": 0.6,
    "raw_payload": {
      "id": 8178007061,
      "type": "node",
      "lat": 37.2210688,
      "lon": -121.8623919,
      "tags": {
        "addr:city": "San Jose",
        "addr:housenumber": "6499",
        "addr:postcode": "95120",
        "addr:state": "CA",
        "addr:street": "Camden Avenue",
        "brand": "76",
        "brand:wikidata": "Q1658320",
        "name": "Almaden Center 76",
        "operator": "Tala Fuel Incorporated",
        "shop": "convenience"
      }
    }
  },
  {
    "source": "osm",
    "external_id": "osm:node:8533188737",
    "name": "6500 Leyland",
    "lat": 37.2215238,
    "lng": -121.8817084,
    "address": "6500 Leyland Park Drive San Jose",
    "phone": null,
    "website": "https://store.6500leyland.com/",
    "category_hint": "bakery",
    "confidence": 0.6,
    "raw_payload": {
      "id": 8533188737,
      "type": "node",
      "lat": 37.2215238,
      "lon": -121.8817084,
      "tags": {
        "addr:city": "San Jose",
        "addr:housenumber": "6500",
        "addr:postcode": "95120",
        "addr:state": "CA",
        "addr:street": "Leyland Park Drive",
        "name": "6500 Leyland",
        "official_name": "6500 Leyland LLC",
        "shop": "bakery",
        "website": "https://store.6500leyland.com/"
      }
    }
  },
  {
    "source": "osm",
    "external_id": "osm:way:89365234",
    "name": "Country Inn Cafe",
    "lat": 37.2212457,
    "lng": -121.8637326,
    "address": "6484 Camden Avenue San Jose",
    "phone": null,
    "website": null,
    "category_hint": "restaurant",
    "confidence": 0.6,
    "raw_payload": {
      "id": 89365234,
      "type": "way",
      "lat": 37.2212457,
      "lon": -121.8637326,
      "tags": {
        "addr:city": "San Jose",
        "addr:housenumber": "6484",
        "addr:postcode": "95120",
        "addr:street": "Camden Avenue",
        "amenity": "restaurant",
        "building": "yes",
        "ele": "79.66",
        "height": "4.08",
        "name": "Country Inn Cafe"
      }
    }
  },
  {
    "source": "osm",
    "external_id": "osm:way:99135843",
    "name": "Chevron",
    "lat": 37.2297193,
    "lng": -121.8712784,
    "address": "16455 Almaden Expressway San Jose",
    "phone": null,
    "website": null,
    "category_hint": "convenience",
    "confidence": 0.6,
    "raw_payload": {
      "id": 99135843,
      "type": "way",
      "lat": 37.2297193,
      "lon": -121.8712784,
      "tags": {
        "addr:city": "San Jose",
        "addr:housenumber": "16455",
        "addr:postcode": "95120",
        "addr:street": "Almaden Expressway",
        "brand": "Chevron",
        "brand:wikidata": "Q319642",
        "building": "yes",
        "ele": "71.81",
        "height": "5.16",
        "name": "Chevron",
        "shop": "convenience"
      }
    }
  },
  {
    "source": "osm",
    "external_id": "osm:way:239712855",
    "name": "Safeway",
    "lat": 37.2194894,
    "lng": -121.8614873,
    "address": "6477 Almaden Expressway San Jose",
    "phone": "+14082683511",
    "website": "https://local.safeway.com/safeway/ca/san-jose/6477-almaden-expwy.html",
    "category_hint": "supermarket",
    "confidence": 0.6,
    "raw_payload": {
      "id": 239712855,
      "type": "way",
      "lat": 37.2194894,
      "lon": -121.8614873,
      "tags": {
        "addr:city": "San Jose",
        "addr:housenumber": "6477",
        "addr:postcode": "95120",
        "addr:state": "CA",
        "addr:street": "Almaden Expressway",
        "brand": "Safeway",
        "brand:wikidata": "Q1508234",
        "building": "retail",
        "building:levels": "1",
        "ele": "86.56",
        "height": "7.04",
        "name": "Safeway",
        "official_name": "Safeway #695",
        "opening_hours": "24/7",
        "phone": "+1 408-268-3511",
        "ref": "695",
        "roof:levels": "0",
        "shop": "supermarket",
        "website": "https://local.safeway.com/safeway/ca/san-jose/6477-almaden-expwy.html"
      }
    }
  },
  {
    "source": "osm",
    "external_id": "osm:node:7360494842",
    "name": "T4 Almaden",
    "lat": 37.2102709,
    "lng": -121.845339,
    "address": "6950 Almaden Expressway San Jose",
    "phone": null,
    "website": null,
    "category_hint": "cafe",
    "confidence": 0.6,
    "raw_payload": {
      "id": 7360494842,
      "type": "node",
      "lat": 37.2102709,
      "lon": -121.845339,
      "tags": {
        "addr:city": "San Jose",
        "addr:housenumber": "6950",
        "addr:postcode": "95120",
        "addr:state": "CA",
        "addr:street": "Almaden Expressway",
        "amenity": "cafe",
        "cuisine": "bubble_tea",
        "name": "T4 Almaden",
        "operator": "T4 Almaden Valley LLC",
        "short_name": "T4"
      }
    }
  },
  {
    "source": "osm",
    "external_id": "osm:node:7360494844",
    "name": "Sabores of the Valley",
    "lat": 37.2103775,
    "lng": -121.84557,
    "address": "6944 Almaden Expressway San Jose",
    "phone": null,
    "website": null,
    "category_hint": "restaurant",
    "confidence": 0.6,
    "raw_payload": {
      "id": 7360494844,
      "type": "node",
      "lat": 37.2103775,
      "lon": -121.84557,
      "tags": {
        "addr:city": "San Jose",
        "addr:housenumber": "6944",
        "addr:postcode": "95120",
        "addr:state": "CA",
        "addr:street": "Almaden Expressway",
        "amenity": "restaurant",
        "name": "Sabores of the Valley"
      }
    }
  },
  {
    "source": "osm",
    "external_id": "osm:node:7360494846",
    "name": "Pomodoro Pizza",
    "lat": 37.2109933,
    "lng": -121.8462,
    "address": "6932 Almaden Expressway San Jose",
    "phone": null,
    "website": null,
    "category_hint": "restaurant",
    "confidence": 0.6,
    "raw_payload": {
      "id": 7360494846,
      "type": "node",
      "lat": 37.2109933,
      "lon": -121.8462,
      "tags": {
        "addr:city": "San Jose",
        "addr:housenumber": "6932",
        "addr:postcode": "95120",
        "addr:state": "CA",
        "addr:street": "Almaden Expressway",
        "amenity": "restaurant",
        "cuisine": "pizza",
        "name": "Pomodoro Pizza",
        "operator": "SRS Enterprise, Incorporated"
      }
    }
  },
  {
    "source": "osm",
    "external_id": "osm:node:9276507503",
    "name": "Lin Garden",
    "lat": 37.2110876,
    "lng": -121.8462712,
    "address": "6924 Almaden Expressway San Jose",
    "phone": null,
    "website": null,
    "category_hint": "restaurant",
    "confidence": 0.6,
    "raw_payload": {
      "id": 9276507503,
      "type": "node",
      "lat": 37.2110876,
      "lon": -121.8462712,
      "tags": {
        "addr:city": "San Jose",
        "addr:housenumber": "6924",
        "addr:postcode": "95120",
        "addr:state": "CA",
        "addr:street": "Almaden Expressway",
        "amenity": "restaurant",
        "cuisine": "chinese",
        "name": "Lin Garden"
      }
    }
  },
  {
    "source": "osm",
    "external_id": "osm:node:8826033068",
    "name": "Eurest Dining",
    "lat": 37.2110366,
    "lng": -121.8069788,
    "address": "650 Harry Road San Jose",
    "phone": null,
    "website": null,
    "category_hint": "fast_food",
    "confidence": 0.6,
    "raw_payload": {
      "id": 8826033068,
      "type": "node",
      "lat": 37.2110366,
      "lon": -121.8069788,
      "tags": {
        "addr:city": "San Jose",
        "addr:housenumber": "650",
        "addr:postcode": "95120",
        "addr:state": "CA",
        "addr:street": "Harry Road",
        "amenity": "fast_food",
        "fast_food": "cafeteria",
        "fixme": "Unsure of exact location of restaurant within building",
        "name": "Eurest Dining"
      }
    }
  },
  {
    "source": "osm",
    "external_id": "osm:node:1152205200",
    "name": "El Amigo",
    "lat": 37.2270396,
    "lng": -121.7739607,
    "address": "7090 Santa Teresa Boulevard San Jose",
    "phone": null,
    "website": null,
    "category_hint": "restaurant",
    "confidence": 0.6,
    "raw_payload": {
      "id": 1152205200,
      "type": "node",
      "lat": 37.2270396,
      "lon": -121.7739607,
      "tags": {
        "addr:city": "San Jose",
        "addr:housenumber": "7090",
        "addr:postcode": "95139",
        "addr:state": "CA",
        "addr:street": "Santa Teresa Boulevard",
        "amenity": "restaurant",
        "cuisine": "mexican",
        "name": "El Amigo",
        "official_name": "El Amigo Restaurant",
        "opening_hours": "Mo-Sa 11:00-21:00; Su 09:00-21:00",
        "operator": "Huberto Acevedo Junior Restaurants, Incorporated"
      }
    }
  },
  {
    "source": "osm",
    "external_id": "osm:node:5172034722",
    "name": "Baskin-Robbins",
    "lat": 37.2278398,
    "lng": -121.7753582,
    "address": "7040 Santa Teresa Boulevard San Jose",
    "phone": "+14082253100",
    "website": "https://locations.baskinrobbins.com/ca/san-jose/7040-santa-teresa-blvd-361200-br",
    "category_hint": "ice_cream",
    "confidence": 0.6,
    "raw_payload": {
      "id": 5172034722,
      "type": "node",
      "lat": 37.2278398,
      "lon": -121.7753582,
      "tags": {
        "addr:city": "San Jose",
        "addr:housenumber": "7040",
        "addr:postcode": "95139",
        "addr:state": "CA",
        "addr:street": "Santa Teresa Boulevard",
        "amenity": "ice_cream",
        "brand": "Baskin-Robbins",
        "brand:wikidata": "Q584601",
        "cuisine": "ice_cream",
        "name": "Baskin-Robbins",
        "name:en": "Baskin robbins",
        "name:ru": "Baskin robbins",
        "official_name": "Santa Teresa Baskin Robbins",
        "opening_hours": "11:00-23:30",
        "phone": "+1 408-225-3100",
        "website": "https://locations.baskinrobbins.com/ca/san-jose/7040-santa-teresa-blvd-361200-br"
      }
    }
  },
  {
    "source": "osm",
    "external_id": "osm:node:5172065621",
    "name": "Subway",
    "lat": 37.2277662,
    "lng": -121.7752914,
    "address": "7042 Santa Teresa Boulevard San Jose",
    "phone": "+14086294029",
    "website": "https://restaurants.subway.com/united-states/ca/san-jose/7042-santa-teresa-blvd",
    "category_hint": "fast_food",
    "confidence": 0.6,
    "raw_payload": {
      "id": 5172065621,
      "type": "node",
      "lat": 37.2277662,
      "lon": -121.7752914,
      "tags": {
        "addr:city": "San Jose",
        "addr:housenumber": "7042",
        "addr:postcode": "95139",
        "addr:state": "CA",
        "addr:street": "Santa Teresa Boulevard",
        "amenity": "fast_food",
        "brand": "Subway",
        "brand:wikidata": "Q244457",
        "cuisine": "sandwich",
        "name": "Subway",
        "name:en": "Subway",
        "name:ru": "Subway",
        "official_name": "Subway 42032",
        "opening_hours": "Mo-Fr 07:00-22:30; Sa 08:00-22:30; Su 08:30-22:00",
        "phone": "+1 408-629-4029",
        "ref": "42032",
        "takeaway": "yes",
        "website": "https://restaurants.subway.com/united-states/ca/san-jose/7042-santa-teresa-blvd"
      }
    }
  },
  {
    "source": "osm",
    "external_id": "osm:node:8232899155",
    "name": "Grocery Outlet",
    "lat": 37.2273223,
    "lng": -121.774357,
    "address": "7076 Santa Teresa Boulevard San Jose",
    "phone": null,
    "website": null,
    "category_hint": "supermarket",
    "confidence": 0.6,
    "raw_payload": {
      "id": 8232899155,
      "type": "node",
      "lat": 37.2273223,
      "lon": -121.774357,
      "tags": {
        "addr:city": "San Jose",
        "addr:housenumber": "7076",
        "addr:postcode": "95139",
        "addr:state": "CA",
        "addr:street": "Santa Teresa Boulevard",
        "brand": "Grocery Outlet",
        "brand:wikidata": "Q5609934",
        "name": "Grocery Outlet",
        "official_name": "Grocery Outlet Bargain Market",
        "opening_hours": "08:00-21:00",
        "operator": "Helo Family LLC",
        "shop": "supermarket"
      }
    }
  },
  {
    "source": "osm",
    "external_id": "osm:node:8255740984",
    "name": "Sideline Sports Bar & Grill",
    "lat": 37.2281184,
    "lng": -121.7751322,
    "address": "7028 Santa Teresa Boulevard San Jose",
    "phone": null,
    "website": null,
    "category_hint": "bar",
    "confidence": 0.6,
    "raw_payload": {
      "id": 8255740984,
      "type": "node",
      "lat": 37.2281184,
      "lon": -121.7751322,
      "tags": {
        "addr:city": "San Jose",
        "addr:housenumber": "7028",
        "addr:postcode": "95139",
        "addr:state": "CA",
        "addr:street": "Santa Teresa Boulevard",
        "amenity": "bar",
        "name": "Sideline Sports Bar & Grill"
      }
    }
  },
  {
    "source": "osm",
    "external_id": "osm:node:8255740991",
    "name": "Golden House",
    "lat": 37.2266544,
    "lng": -121.7734774,
    "address": "7108 Santa Teresa Boulevard San Jose",
    "phone": null,
    "website": null,
    "category_hint": "restaurant",
    "confidence": 0.6,
    "raw_payload": {
      "id": 8255740991,
      "type": "node",
      "lat": 37.2266544,
      "lon": -121.7734774,
      "tags": {
        "addr:city": "San Jose",
        "addr:housenumber": "7108",
        "addr:postcode": "95139",
        "addr:state": "CA",
        "addr:street": "Santa Teresa Boulevard",
        "amenity": "restaurant",
        "name": "Golden House"
      }
    }
  },
  {
    "source": "osm",
    "external_id": "osm:node:8255740992",
    "name": "Sushi Boat Town",
    "lat": 37.2262667,
    "lng": -121.7728683,
    "address": "7130 Santa Teresa Boulevard San Jose",
    "phone": null,
    "website": null,
    "category_hint": "restaurant",
    "confidence": 0.6,
    "raw_payload": {
      "id": 8255740992,
      "type": "node",
      "lat": 37.2262667,
      "lon": -121.7728683,
      "tags": {
        "addr:city": "San Jose",
        "addr:housenumber": "7130",
        "addr:postcode": "95139",
        "addr:state": "CA",
        "addr:street": "Santa Teresa Boulevard",
        "amenity": "restaurant",
        "cuisine": "sushi",
        "name": "Sushi Boat Town"
      }
    }
  },
  {
    "source": "osm",
    "external_id": "osm:node:8288079895",
    "name": "Funny Farm",
    "lat": 37.2280459,
    "lng": -121.7749908,
    "address": null,
    "phone": null,
    "website": null,
    "category_hint": "fast_food",
    "confidence": 0.6,
    "raw_payload": {
      "id": 8288079895,
      "type": "node",
      "lat": 37.2280459,
      "lon": -121.7749908,
      "tags": {
        "amenity": "fast_food",
        "name": "Funny Farm"
      }
    }
  },
  {
    "source": "osm",
    "external_id": "osm:node:8288098803",
    "name": "Bernal Bagels & Donuts",
    "lat": 37.2274971,
    "lng": -121.774836,
    "address": "7064 Santa Teresa Boulevard San Jose",
    "phone": null,
    "website": null,
    "category_hint": "cafe",
    "confidence": 0.6,
    "raw_payload": {
      "id": 8288098803,
      "type": "node",
      "lat": 37.2274971,
      "lon": -121.774836,
      "tags": {
        "addr:city": "San Jose",
        "addr:housenumber": "7064",
        "addr:postcode": "95139",
        "addr:state": "CA",
        "addr:street": "Santa Teresa Boulevard",
        "amenity": "cafe",
        "cuisine": "donut",
        "name": "Bernal Bagels & Donuts",
        "opening_hours": "Mo-Fr 05:00-15:00; Sa 06:00-14:30; Su 06:00-14:00"
      }
    }
  },
  {
    "source": "osm",
    "external_id": "osm:node:8288098804",
    "name": "Khunying Thai",
    "lat": 37.2277077,
    "lng": -121.7751924,
    "address": "7048 Santa Teresa Boulevard San Jose",
    "phone": "+14086773535",
    "website": null,
    "category_hint": "restaurant",
    "confidence": 0.6,
    "raw_payload": {
      "id": 8288098804,
      "type": "node",
      "lat": 37.2277077,
      "lon": -121.7751924,
      "tags": {
        "addr:city": "San Jose",
        "addr:housenumber": "7048",
        "addr:postcode": "95139",
        "addr:state": "CA",
        "addr:street": "Santa Teresa Boulevard",
        "amenity": "restaurant",
        "cuisine": "thai",
        "name": "Khunying Thai",
        "opening_hours": "Mo-Fr 11:00-14:30,17:00-21:00;Sa 11:30-15:00,17:00-21:00; Su 12:00-15:00,17:00-21:00",
        "phone": "+1-408-677-3535"
      }
    }
  },
  {
    "source": "osm",
    "external_id": "osm:node:8288098808",
    "name": "Santa Teresa Bottle Shoppe",
    "lat": 37.2274533,
    "lng": -121.7747619,
    "address": "7068 Santa Teresa Boulevard San Jose",
    "phone": null,
    "website": null,
    "category_hint": "convenience",
    "confidence": 0.6,
    "raw_payload": {
      "id": 8288098808,
      "type": "node",
      "lat": 37.2274533,
      "lon": -121.7747619,
      "tags": {
        "addr:city": "San Jose",
        "addr:housenumber": "7068",
        "addr:postcode": "95139",
        "addr:state": "CA",
        "addr:street": "Santa Teresa Boulevard",
        "atm": "yes",
        "name": "Santa Teresa Bottle Shoppe",
        "operator": "GNA Liquor Inc.",
        "shop": "convenience"
      }
    }
  },
  {
    "source": "osm",
    "external_id": "osm:node:8866471710",
    "name": "Bonchon",
    "lat": 37.2265985,
    "lng": -121.7756916,
    "address": "7026 Santa Teresa Boulevard San Jose",
    "phone": null,
    "website": null,
    "category_hint": "restaurant",
    "confidence": 0.6,
    "raw_payload": {
      "id": 8866471710,
      "type": "node",
      "lat": 37.2265985,
      "lon": -121.7756916,
      "tags": {
        "addr:city": "San Jose",
        "addr:housenumber": "7026",
        "addr:postcode": "95139",
        "addr:state": "CA",
        "addr:street": "Santa Teresa Boulevard",
        "addr:unit": "30",
        "amenity": "restaurant",
        "cuisine": "korean",
        "name": "Bonchon"
      }
    }
  },
  {
    "source": "osm",
    "external_id": "osm:node:9025767914",
    "name": "Starbucks",
    "lat": 37.2266998,
    "lng": -121.7757433,
    "address": "7026 Santa Teresa Boulevard San Jose",
    "phone": "+14088333702",
    "website": "https://www.starbucks.com/store-locator/store/1013213/bernal-santa-teresa-7026-santa-teresa-blvd-san-jose-ca-951391347-us",
    "category_hint": "cafe",
    "confidence": 0.6,
    "raw_payload": {
      "id": 9025767914,
      "type": "node",
      "lat": 37.2266998,
      "lon": -121.7757433,
      "tags": {
        "addr:city": "San Jose",
        "addr:housenumber": "7026",
        "addr:postcode": "95139",
        "addr:state": "CA",
        "addr:street": "Santa Teresa Boulevard",
        "addr:unit": "10",
        "amenity": "cafe",
        "branch": "Bernal & Santa Teresa",
        "brand": "Starbucks",
        "brand:wikidata": "Q37158",
        "cuisine": "coffee_shop",
        "name": "Starbucks",
        "official_name": "Starbucks Coffee",
        "phone": "+1 408-833-3702",
        "ref": "1013213",
        "takeaway": "yes",
        "website": "https://www.starbucks.com/store-locator/store/1013213/bernal-santa-teresa-7026-santa-teresa-blvd-san-jose-ca-951391347-us"
      }
    }
  },
  {
    "source": "osm",
    "external_id": "osm:way:99656998",
    "name": "76",
    "lat": 37.2269954,
    "lng": -121.7759806,
    "address": "7022 Santa Teresa Boulevard San Jose",
    "phone": null,
    "website": null,
    "category_hint": "convenience",
    "confidence": 0.6,
    "raw_payload": {
      "id": 99656998,
      "type": "way",
      "lat": 37.2269954,
      "lon": -121.7759806,
      "tags": {
        "addr:city": "San Jose",
        "addr:housenumber": "7022",
        "addr:postcode": "95139",
        "addr:state": "CA",
        "addr:street": "Santa Teresa Boulevard",
        "brand": "76",
        "brand:wikidata": "Q1658320",
        "building": "yes",
        "ele": "69.69",
        "height": "5.08",
        "name": "76",
        "operator": "Apro, LLC",
        "shop": "convenience"
      }
    }
  },
  {
    "source": "osm",
    "external_id": "osm:way:99656999",
    "name": "Flames Coffee Shop",
    "lat": 37.2258377,
    "lng": -121.7740763,
    "address": "7170 Santa Teresa Boulevard San Jose",
    "phone": null,
    "website": null,
    "category_hint": "cafe",
    "confidence": 0.6,
    "raw_payload": {
      "id": 99656999,
      "type": "way",
      "lat": 37.2258377,
      "lon": -121.7740763,
      "tags": {
        "addr:city": "San Jose",
        "addr:housenumber": "7170",
        "addr:postcode": "95139",
        "addr:state": "CA",
        "addr:street": "Santa Teresa Boulevard",
        "amenity": "cafe",
        "building": "yes",
        "cuisine": "coffee_shop",
        "ele": "69.35",
        "height": "4.11",
        "name": "Flames Coffee Shop",
        "short_name": "Flames"
      }
    }
  },
  {
    "source": "osm",
    "external_id": "osm:way:99657000",
    "name": "Carl's Jr.",
    "lat": 37.2272972,
    "lng": -121.7757978,
    "address": "172 Bernal Road San Jose",
    "phone": "+14082255300",
    "website": "https://locations.carlsjr.com/ca/san-jose/172-bernal-rd",
    "category_hint": "fast_food",
    "confidence": 0.6,
    "raw_payload": {
      "id": 99657000,
      "type": "way",
      "lat": 37.2272972,
      "lon": -121.7757978,
      "tags": {
        "addr:city": "San Jose",
        "addr:housenumber": "172",
        "addr:postcode": "95119",
        "addr:state": "CA",
        "addr:street": "Bernal Road",
        "amenity": "fast_food",
        "brand": "Carl's Jr.",
        "brand:wikidata": "Q1043486",
        "building": "yes",
        "cuisine": "burger",
        "drive_through": "yes",
        "ele": "69.24",
        "height": "3.23",
        "name": "Carl's Jr.",
        "official_name": "Carl’s Jr. 7048",
        "operator": "Tristar Foods LLC",
        "phone": "+1 408-225-5300",
        "ref": "7048",
        "takeaway": "yes",
        "website": "https://locations.carlsjr.com/ca/san-jose/172-bernal-rd"
      }
    }
  },
  {
    "source": "osm",
    "external_id": "osm:way:99657003",
    "name": "Taco Bell",
    "lat": 37.2274751,
    "lng": -121.7756419,
    "address": "170 Bernal Road San Jose",
    "phone": "+14082814570",
    "website": "https://locations.tacobell.com/ca/san-jose/170-bernal-rd.html",
    "category_hint": "fast_food",
    "confidence": 0.6,
    "raw_payload": {
      "id": 99657003,
      "type": "way",
      "lat": 37.2274751,
      "lon": -121.7756419,
      "tags": {
        "addr:city": "San Jose",
        "addr:housenumber": "170",
        "addr:postcode": "95119",
        "addr:state": "CA",
        "addr:street": "Bernal Road",
        "amenity": "fast_food",
        "brand": "Taco Bell",
        "brand:wikidata": "Q752941",
        "building": "yes",
        "cuisine": "tex-mex",
        "drive_through": "yes",
        "ele": "69.03",
        "height": "4.60",
        "name": "Taco Bell",
        "operator": "Tambro, Incorporated",
        "phone": "+1 408-281-4570",
        "takeaway": "yes",
        "website": "https://locations.tacobell.com/ca/san-jose/170-bernal-rd.html"
      }
    }
  },
  {
    "source": "osm",
    "external_id": "osm:node:598640889",
    "name": "McDonald's",
    "lat": 37.243848,
    "lng": -121.9597713,
    "address": "15475 Los Gatos Boulevard Los Gatos",
    "phone": "+14083562355",
    "website": "https://www.mcdonalds.com/us/en-us/location/4194.html",
    "category_hint": "fast_food",
    "confidence": 0.6,
    "raw_payload": {
      "id": 598640889,
      "type": "node",
      "lat": 37.243848,
      "lon": -121.9597713,
      "tags": {
        "addr:city": "Los Gatos",
        "addr:housenumber": "15475",
        "addr:postcode": "95032-2501",
        "addr:state": "CA",
        "addr:street": "Los Gatos Boulevard",
        "amenity": "fast_food",
        "brand": "McDonald's",
        "brand:website": "https://www.mcdonalds.com/",
        "brand:wikidata": "Q38076",
        "cuisine": "burger",
        "internet_access": "wlan",
        "name": "McDonald's",
        "opening_hours": "Mo-Fr 06:00-21:00; Sa-Su 07:00-21:00",
        "phone": "+1 408-356-2355",
        "takeaway": "yes",
        "website": "https://www.mcdonalds.com/us/en-us/location/4194.html"
      }
    }
  },
  {
    "source": "osm",
    "external_id": "osm:node:1077855956",
    "name": "Shmoozers",
    "lat": 37.2524729,
    "lng": -121.9619631,
    "address": null,
    "phone": null,
    "website": null,
    "category_hint": "cafe",
    "confidence": 0.6,
    "raw_payload": {
      "id": 1077855956,
      "type": "node",
      "lat": 37.2524729,
      "lon": -121.9619631,
      "tags": {
        "amenity": "cafe",
        "name": "Shmoozers"
      }
    }
  },
  {
    "source": "osm",
    "external_id": "osm:node:1077867849",
    "name": "Noah's Bagels",
    "lat": 37.2357817,
    "lng": -121.961417,
    "address": "15996 Los Gatos Boulevard Los Gatos",
    "phone": "+14083585895",
    "website": null,
    "category_hint": "fast_food",
    "confidence": 0.6,
    "raw_payload": {
      "id": 1077867849,
      "type": "node",
      "lat": 37.2357817,
      "lon": -121.961417,
      "tags": {
        "addr:city": "Los Gatos",
        "addr:housenumber": "15996",
        "addr:postcode": "95032",
        "addr:state": "CA",
        "addr:street": "Los Gatos Boulevard",
        "amenity": "fast_food",
        "brand": "Noah's Bagels",
        "brand:wikidata": "Q64517373",
        "cuisine": "bagel",
        "name": "Noah's Bagels",
        "official_name": "Noah's New York Bagels",
        "phone": "+1-408-358-5895",
        "takeaway": "yes"
      }
    }
  },
  {
    "source": "osm",
    "external_id": "osm:node:1077867853",
    "name": "Jamba",
    "lat": 37.2355827,
    "lng": -121.964302,
    "address": "628 Blossom Hill Road Los Gatos",
    "phone": "+14083586040",
    "website": "https://locations.jamba.com/ca/los-gatos/628-blossom-hill-rd",
    "category_hint": "fast_food",
    "confidence": 0.6,
    "raw_payload": {
      "id": 1077867853,
      "type": "node",
      "lat": 37.2355827,
      "lon": -121.964302,
      "tags": {
        "addr:city": "Los Gatos",
        "addr:housenumber": "628",
        "addr:postcode": "95032",
        "addr:state": "CA",
        "addr:street": "Blossom Hill Road",
        "alt_name": "Jamba Juice",
        "amenity": "fast_food",
        "branch": "Los Gatos",
        "brand": "Jamba",
        "brand:wikidata": "Q3088784",
        "cuisine": "juice",
        "name": "Jamba",
        "opening_hours": "08:00-19:00",
        "phone": "+1 408-358-6040",
        "takeaway": "yes",
        "website": "https://locations.jamba.com/ca/los-gatos/628-blossom-hill-rd"
      }
    }
  },
  {
    "source": "osm",
    "external_id": "osm:node:1077867862",
    "name": "Starbucks",
    "lat": 37.2356639,
    "lng": -121.964452,
    "address": "624 Blossom Hill Road Blossom Hill",
    "phone": "+14084020310",
    "website": "https://www.starbucks.com/store-locator/store/15691/blossom-hill-pavilion-624-blossom-hill-road-los-gatos-ca-950324514-us",
    "category_hint": "cafe",
    "confidence": 0.6,
    "raw_payload": {
      "id": 1077867862,
      "type": "node",
      "lat": 37.2356639,
      "lon": -121.964452,
      "tags": {
        "addr:city": "Blossom Hill",
        "addr:housenumber": "624",
        "addr:postcode": "95032",
        "addr:state": "CA",
        "addr:street": "Blossom Hill Road",
        "amenity": "cafe",
        "branch": "Blossom Hill Pavilion",
        "brand": "Starbucks",
        "brand:wikidata": "Q37158",
        "cuisine": "coffee_shop",
        "mapillary": "1237024776699993",
        "name": "Starbucks",
        "official_name": "Starbucks Coffee",
        "phone": "+1 408-402-0310",
        "ref": "15691",
        "takeaway": "yes",
        "website": "https://www.starbucks.com/store-locator/store/15691/blossom-hill-pavilion-624-blossom-hill-road-los-gatos-ca-950324514-us"
      }
    }
  },
  {
    "source": "osm",
    "external_id": "osm:node:1078357941",
    "name": "Baskin-Robbins",
    "lat": 37.2400902,
    "lng": -121.9604088,
    "address": "15730 Los Gatos Boulevard Los Gatos",
    "phone": "+14083564433",
    "website": "https://locations.baskinrobbins.com/ca/los-gatos/15730-los-gatos-blvd-361181-br",
    "category_hint": "ice_cream",
    "confidence": 0.6,
    "raw_payload": {
      "id": 1078357941,
      "type": "node",
      "lat": 37.2400902,
      "lon": -121.9604088,
      "tags": {
        "addr:city": "Los Gatos",
        "addr:housenumber": "15730",
        "addr:postcode": "95032",
        "addr:state": "CA",
        "addr:street": "Los Gatos Boulevard",
        "amenity": "ice_cream",
        "brand": "Baskin-Robbins",
        "brand:wikidata": "Q584601",
        "cuisine": "ice_cream",
        "name": "Baskin-Robbins",
        "opening_hours": "11:00-22:00",
        "phone": "+1 408-356-4433",
        "website": "https://locations.baskinrobbins.com/ca/los-gatos/15730-los-gatos-blvd-361181-br"
      }
    }
  },
  {
    "source": "osm",
    "external_id": "osm:node:1078357957",
    "name": "Trader Joe's",
    "lat": 37.2445799,
    "lng": -121.9576836,
    "address": "15466 Los Gatos Boulevard Los Gatos",
    "phone": "+14083562324",
    "website": "https://locations.traderjoes.com/ca/los-gatos/181/",
    "category_hint": "supermarket",
    "confidence": 0.6,
    "raw_payload": {
      "id": 1078357957,
      "type": "node",
      "lat": 37.2445799,
      "lon": -121.9576836,
      "tags": {
        "addr:city": "Los Gatos",
        "addr:housenumber": "15466",
        "addr:postcode": "95032",
        "addr:state": "CA",
        "addr:street": "Los Gatos Boulevard",
        "branch": "Los Gatos",
        "brand": "Trader Joe's",
        "brand:wikidata": "Q688825",
        "name": "Trader Joe's",
        "opening_hours": "Mo-Su 09:00-21:00",
        "phone": "+1 408-356-2324",
        "ref": "181",
        "shop": "supermarket",
        "website": "https://locations.traderjoes.com/ca/los-gatos/181/"
      }
    }
  },
  {
    "source": "osm",
    "external_id": "osm:node:1169483509",
    "name": "Aldo's Cafe & Deli",
    "lat": 37.2302401,
    "lng": -121.97978,
    "address": null,
    "phone": null,
    "website": null,
    "category_hint": "deli",
    "confidence": 0.6,
    "raw_payload": {
      "id": 1169483509,
      "type": "node",
      "lat": 37.2302401,
      "lon": -121.97978,
      "tags": {
        "name": "Aldo's Cafe & Deli",
        "shop": "deli"
      }
    }
  },
  {
    "source": "osm",
    "external_id": "osm:node:1169483516",
    "name": "Starbucks",
    "lat": 37.2303054,
    "lng": -121.979733,
    "address": "442 North Santa Cruz Avenue Los Gatos",
    "phone": "+14083956912",
    "website": "https://www.starbucks.com/store-locator/store/17875/santa-cruz-hwy-9-442-n-santa-cruz-avenue-los-gatos-ca-950305313-us",
    "category_hint": "cafe",
    "confidence": 0.6,
    "raw_payload": {
      "id": 1169483516,
      "type": "node",
      "lat": 37.2303054,
      "lon": -121.979733,
      "tags": {
        "addr:city": "Los Gatos",
        "addr:housenumber": "442",
        "addr:postcode": "95030",
        "addr:state": "CA",
        "addr:street": "North Santa Cruz Avenue",
        "amenity": "cafe",
        "branch": "Santa Cruz & Highway 9",
        "brand": "Starbucks",
        "brand:wikidata": "Q37158",
        "cuisine": "coffee_shop",
        "name": "Starbucks",
        "official_name": "Starbucks Coffee",
        "outdoor_seating": "yes",
        "phone": "+1 408-395-6912",
        "ref": "17875",
        "takeaway": "yes",
        "website": "https://www.starbucks.com/store-locator/store/17875/santa-cruz-hwy-9-442-n-santa-cruz-avenue-los-gatos-ca-950305313-us"
      }
    }
  },
  {
    "source": "osm",
    "external_id": "osm:node:1219353018",
    "name": "Peet's Coffee",
    "lat": 37.2349102,
    "lng": -121.960999,
    "address": "798 Blossom Hill Road Los Gatos",
    "phone": null,
    "website": null,
    "category_hint": "cafe",
    "confidence": 0.6,
    "raw_payload": {
      "id": 1219353018,
      "type": "node",
      "lat": 37.2349102,
      "lon": -121.960999,
      "tags": {
        "addr:city": "Los Gatos",
        "addr:housenumber": "798",
        "addr:postcode": "95032",
        "addr:state": "CA",
        "addr:street": "Blossom Hill Road",
        "amenity": "cafe",
        "brand": "Peet's Coffee",
        "brand:wikidata": "Q1094101",
        "cuisine": "coffee_shop",
        "name": "Peet's Coffee",
        "takeaway": "yes"
      }
    }
  },
  {
    "source": "osm",
    "external_id": "osm:node:1219353019",
    "name": "Togo's",
    "lat": 37.234656,
    "lng": -121.961085,
    "address": "794 Blossom Hill Road Los Gatos",
    "phone": null,
    "website": "https://togos.com/locations/los-gatos/794-blossom-hill-rd",
    "category_hint": "fast_food",
    "confidence": 0.6,
    "raw_payload": {
      "id": 1219353019,
      "type": "node",
      "lat": 37.234656,
      "lon": -121.961085,
      "tags": {
        "addr:city": "Los Gatos",
        "addr:housenumber": "794",
        "addr:postcode": "95032",
        "addr:state": "CA",
        "addr:street": "Blossom Hill Road",
        "amenity": "fast_food",
        "brand": "Togo's",
        "brand:wikidata": "Q3530375",
        "cuisine": "sandwich",
        "name": "Togo's",
        "takeaway": "yes",
        "website": "https://togos.com/locations/los-gatos/794-blossom-hill-rd"
      }
    }
  },
  {
    "source": "osm",
    "external_id": "osm:node:1219353020",
    "name": "Doña Maria",
    "lat": 37.234505,
    "lng": -121.961117,
    "address": "790 Blossom Hill Road Los Gatos",
    "phone": null,
    "website": "http://www.dona-maria-restaurant.com/",
    "category_hint": "restaurant",
    "confidence": 0.6,
    "raw_payload": {
      "id": 1219353020,
      "type": "node",
      "lat": 37.234505,
      "lon": -121.961117,
      "tags": {
        "addr:city": "Los Gatos",
        "addr:housenumber": "790",
        "addr:postcode": "95032",
        "addr:state": "CA",
        "addr:street": "Blossom Hill Road",
        "amenity": "restaurant",
        "cuisine": "mexican",
        "name": "Doña Maria",
        "website": "http://www.dona-maria-restaurant.com/"
      }
    }
  },
  {
    "source": "osm",
    "external_id": "osm:node:1680552195",
    "name": "Lunardi's",
    "lat": 37.2344632,
    "lng": -121.962462,
    "address": "720 Blossom Hill Road Los Gatos",
    "phone": null,
    "website": null,
    "category_hint": "supermarket",
    "confidence": 0.6,
    "raw_payload": {
      "id": 1680552195,
      "type": "node",
      "lat": 37.2344632,
      "lon": -121.962462,
      "tags": {
        "addr:city": "Los Gatos",
        "addr:housenumber": "720",
        "addr:postcode": "95032",
        "addr:state": "CA",
        "addr:street": "Blossom Hill Road",
        "name": "Lunardi's",
        "shop": "supermarket"
      }
    }
  },
  {
    "source": "osm",
    "external_id": "osm:node:1680552206",
    "name": "Whole Foods Market",
    "lat": 37.2361305,
    "lng": -121.9615175,
    "address": "15890 Los Gatos Boulevard Los Gatos",
    "phone": "+14083584434",
    "website": "https://www.wholefoodsmarket.com/stores/losgatos",
    "category_hint": "supermarket",
    "confidence": 0.6,
    "raw_payload": {
      "id": 1680552206,
      "type": "node",
      "lat": 37.2361305,
      "lon": -121.9615175,
      "tags": {
        "addr:city": "Los Gatos",
        "addr:housenumber": "15890",
        "addr:postcode": "95032",
        "addr:state": "CA",
        "addr:street": "Los Gatos Boulevard",
        "branch": "Los Gatos",
        "brand": "Whole Foods Market",
        "brand:wikidata": "Q1809448",
        "check_date": "2024-10-03",
        "check_date:opening_hours": "2024-10-03",
        "internet_access": "wlan",
        "name": "Whole Foods Market",
        "official_name": "Whole Foods Market Los Gatos",
        "opening_hours": "Mo-Su 08:00-21:00",
        "phone": "+1 408-358-4434",
        "ref": "losgatos",
        "shop": "supermarket",
        "website": "https://www.wholefoodsmarket.com/stores/losgatos"
      }
    }
  },
  {
    "source": "osm",
    "external_id": "osm:node:2031024225",
    "name": "Viva",
    "lat": 37.2364273,
    "lng": -121.961506,
    "address": "15970 Los Gatos Boulevard",
    "phone": null,
    "website": "http://www.vivalosgatos.com",
    "category_hint": "restaurant",
    "confidence": 0.6,
    "raw_payload": {
      "id": 2031024225,
      "type": "node",
      "lat": 37.2364273,
      "lon": -121.961506,
      "tags": {
        "addr:housenumber": "15970",
        "addr:postcode": "95032",
        "addr:street": "Los Gatos Boulevard",
        "amenity": "restaurant",
        "cuisine": "american",
        "name": "Viva",
        "source": "www.vivalosgatos.com",
        "website": "http://www.vivalosgatos.com"
      }
    }
  },
  {
    "source": "osm",
    "external_id": "osm:node:2494393481",
    "name": "Jiffy Market",
    "lat": 37.2409289,
    "lng": -121.9609565,
    "address": null,
    "phone": null,
    "website": null,
    "category_hint": "supermarket",
    "confidence": 0.6,
    "raw_payload": {
      "id": 2494393481,
      "type": "node",
      "lat": 37.2409289,
      "lon": -121.9609565,
      "tags": {
        "name": "Jiffy Market",
        "shop": "supermarket"
      }
    }
  },
  {
    "source": "osm",
    "external_id": "osm:node:2494395228",
    "name": "Lou's Coffee Shop",
    "lat": 37.240664,
    "lng": -121.9610631,
    "address": null,
    "phone": null,
    "website": null,
    "category_hint": "cafe",
    "confidence": 0.6,
    "raw_payload": {
      "id": 2494395228,
      "type": "node",
      "lat": 37.240664,
      "lon": -121.9610631,
      "tags": {
        "amenity": "cafe",
        "name": "Lou's Coffee Shop"
      }
    }
  },
  {
    "source": "osm",
    "external_id": "osm:node:2494421445",
    "name": "The Happy Hound",
    "lat": 37.237611,
    "lng": -121.9624487,
    "address": "15899 Los Gatos Boulevard Los Gatos",
    "phone": "+14087622390",
    "website": "https://www.happyhoundlg.com",
    "category_hint": "fast_food",
    "confidence": 0.6,
    "raw_payload": {
      "id": 2494421445,
      "type": "node",
      "lat": 37.237611,
      "lon": -121.9624487,
      "tags": {
        "addr:city": "Los Gatos",
        "addr:housenumber": "15899",
        "addr:postcode": "95032",
        "addr:state": "CA",
        "addr:street": "Los Gatos Boulevard",
        "amenity": "fast_food",
        "cuisine": "hot_dog;burger;american;fries",
        "diet:vegetarian": "yes",
        "drive_through": "no",
        "email": "happyhoundlg@gmail.com",
        "level": "0",
        "name": "The Happy Hound",
        "opening_hours": "Mo-Th 10:30-21:00; Fr-Sa 10:30-21:30; Su 11:00-21:00",
        "outdoor_seating": "yes",
        "payment:american_express": "yes",
        "payment:app": "yes",
        "payment:apple_pay": "yes",
        "payment:credit_cards": "yes",
        "payment:debit_cards": "yes",
        "payment:discover_card": "yes",
        "payment:mastercard": "yes",
        "payment:visa": "yes",
        "phone": "+1 408-762-2390",
        "website": "https://www.happyhoundlg.com",
        "website:menu": "https://www.happyhoundlg.com/menu"
      }
    }
  },
  {
    "source": "osm",
    "external_id": "osm:node:2570264372",
    "name": "Tsing Tao",
    "lat": 37.2435666,
    "lng": -121.9605339,
    "address": "15525 Los Gatos Boulevard",
    "phone": null,
    "website": null,
    "category_hint": "restaurant",
    "confidence": 0.6,
    "raw_payload": {
      "id": 2570264372,
      "type": "node",
      "lat": 37.2435666,
      "lon": -121.9605339,
      "tags": {
        "addr:housenumber": "15525",
        "addr:street": "Los Gatos Boulevard",
        "amenity": "restaurant",
        "name": "Tsing Tao"
      }
    }
  },
  {
    "source": "osm",
    "external_id": "osm:node:2570264373",
    "name": "Blvd Cafe",
    "lat": 37.243502,
    "lng": -121.9605703,
    "address": "15525C Los Gatos Boulevard",
    "phone": "+14083564665",
    "website": "http://blvdcoffee.com",
    "category_hint": "cafe",
    "confidence": 0.6,
    "raw_payload": {
      "id": 2570264373,
      "type": "node",
      "lat": 37.243502,
      "lon": -121.9605703,
      "tags": {
        "addr:housenumber": "15525C",
        "addr:street": "Los Gatos Boulevard",
        "alt_name": "Boulevard Cafe",
        "amenity": "cafe",
        "check_date": "2024-10-19",
        "email": "info@blvdcoffee.com",
        "internet_access": "wlan",
        "internet_access:fee": "customers",
        "name": "Blvd Cafe",
        "opening_hours": "Mo-Fr 06:15-17:00; Sa 07:30-15:00; Su 08:00-14:00",
        "outdoor_seating": "yes",
        "phone": "+1 408 356 4665",
        "website": "http://blvdcoffee.com"
      }
    }
  },
  {
    "source": "osm",
    "external_id": "osm:node:2570305924",
    "name": "Erik's DeliCafe",
    "lat": 37.243971,
    "lng": -121.9608155,
    "address": null,
    "phone": null,
    "website": null,
    "category_hint": "restaurant",
    "confidence": 0.6,
    "raw_payload": {
      "id": 2570305924,
      "type": "node",
      "lat": 37.243971,
      "lon": -121.9608155,
      "tags": {
        "amenity": "restaurant",
        "cuisine": "sandwich",
        "name": "Erik's DeliCafe"
      }
    }
  },
  {
    "source": "osm",
    "external_id": "osm:node:3213535254",
    "name": "Shangri-La",
    "lat": 37.2343756,
    "lng": -121.961332,
    "address": "784 Blossom Hill Road Los Gatos",
    "phone": null,
    "website": null,
    "category_hint": "restaurant",
    "confidence": 0.6,
    "raw_payload": {
      "id": 3213535254,
      "type": "node",
      "lat": 37.2343756,
      "lon": -121.961332,
      "tags": {
        "addr:city": "Los Gatos",
        "addr:housenumber": "784",
        "addr:postcode": "95032",
        "addr:state": "CA",
        "addr:street": "Blossom Hill Road",
        "amenity": "restaurant",
        "cuisine": "chinese",
        "name": "Shangri-La"
      }
    }
  },
  {
    "source": "osm",
    "external_id": "osm:node:3272065314",
    "name": "Los Gatos Cafe",
    "lat": 37.2406021,
    "lng": -121.9593474,
    "address": null,
    "phone": null,
    "website": null,
    "category_hint": "cafe",
    "confidence": 0.6,
    "raw_payload": {
      "id": 3272065314,
      "type": "node",
      "lat": 37.2406021,
      "lon": -121.9593474,
      "tags": {
        "amenity": "cafe",
        "name": "Los Gatos Cafe",
        "smoking": "no"
      }
    }
  },
  {
    "source": "osm",
    "external_id": "osm:node:3272065315",
    "name": "Nob Hill Foods",
    "lat": 37.2403368,
    "lng": -121.9597279,
    "address": null,
    "phone": null,
    "website": null,
    "category_hint": "supermarket",
    "confidence": 0.6,
    "raw_payload": {
      "id": 3272065315,
      "type": "node",
      "lat": 37.2403368,
      "lon": -121.9597279,
      "tags": {
        "name": "Nob Hill Foods",
        "shop": "supermarket"
      }
    }
  },
  {
    "source": "osm",
    "external_id": "osm:node:3272066064",
    "name": "Una Mas Mexican Grill",
    "lat": 37.2400126,
    "lng": -121.9603531,
    "address": null,
    "phone": null,
    "website": null,
    "category_hint": "restaurant",
    "confidence": 0.6,
    "raw_payload": {
      "id": 3272066064,
      "type": "node",
      "lat": 37.2400126,
      "lon": -121.9603531,
      "tags": {
        "amenity": "restaurant",
        "cuisine": "mexican",
        "name": "Una Mas Mexican Grill"
      }
    }
  },
  {
    "source": "osm",
    "external_id": "osm:node:3622682435",
    "name": "Philz Coffee",
    "lat": 37.2359468,
    "lng": -121.963497,
    "address": null,
    "phone": null,
    "website": null,
    "category_hint": "cafe",
    "confidence": 0.6,
    "raw_payload": {
      "id": 3622682435,
      "type": "node",
      "lat": 37.2359468,
      "lon": -121.963497,
      "tags": {
        "amenity": "cafe",
        "brand": "Philz Coffee",
        "brand:wikidata": "Q18156812",
        "cuisine": "coffee_shop",
        "name": "Philz Coffee",
        "takeaway": "yes"
      }
    }
  },
  {
    "source": "osm",
    "external_id": "osm:node:3704012656",
    "name": "Baja Fresh",
    "lat": 37.2439327,
    "lng": -121.958206,
    "address": null,
    "phone": null,
    "website": null,
    "category_hint": "fast_food",
    "confidence": 0.6,
    "raw_payload": {
      "id": 3704012656,
      "type": "node",
      "lat": 37.2439327,
      "lon": -121.958206,
      "tags": {
        "amenity": "fast_food",
        "brand": "Baja Fresh",
        "brand:wikidata": "Q2880019",
        "cuisine": "mexican",
        "level": "0",
        "name": "Baja Fresh",
        "official_name": "Baja Fresh Mexican Grill",
        "takeaway": "yes"
      }
    }
  },
  {
    "source": "osm",
    "external_id": "osm:node:3704012661",
    "name": "Top This",
    "lat": 37.244009,
    "lng": -121.9580014,
    "address": null,
    "phone": null,
    "website": null,
    "category_hint": "fast_food",
    "confidence": 0.6,
    "raw_payload": {
      "id": 3704012661,
      "type": "node",
      "lat": 37.244009,
      "lon": -121.9580014,
      "tags": {
        "amenity": "fast_food",
        "cuisine": "pizza",
        "level": "0",
        "name": "Top This"
      }
    }
  },
  {
    "source": "osm",
    "external_id": "osm:node:3921407524",
    "name": "See's Candies",
    "lat": 37.2441281,
    "lng": -121.9579478,
    "address": "15466 Los Gatos Boulevard Los Gatos",
    "phone": "+14083565153",
    "website": "https://www.sees.com/",
    "category_hint": "confectionery",
    "confidence": 0.6,
    "raw_payload": {
      "id": 3921407524,
      "type": "node",
      "lat": 37.2441281,
      "lon": -121.9579478,
      "tags": {
        "addr:city": "Los Gatos",
        "addr:housenumber": "15466",
        "addr:postcode": "95032",
        "addr:state": "CA",
        "addr:street": "Los Gatos Boulevard",
        "brand": "See's Candies",
        "brand:website": "https://chocolateshops.sees.com/ca/losgatos/chocolate_shops_los-gatos_ca_sf-ca-83.html",
        "brand:wikidata": "Q2103510",
        "name": "See's Candies",
        "opening_hours": "Mo 09:00-20:00; Tu-Sa 09:00-19:00; Su 10:00-19:00",
        "phone": "+1 408 356 5153",
        "shop": "confectionery",
        "website": "https://www.sees.com/"
      }
    }
  },
  {
    "source": "osm",
    "external_id": "osm:node:3945081335",
    "name": "Reggae Pot Jamaican Restraurant",
    "lat": 37.2441974,
    "lng": -121.9606681,
    "address": null,
    "phone": null,
    "website": null,
    "category_hint": "restaurant",
    "confidence": 0.6,
    "raw_payload": {
      "id": 3945081335,
      "type": "node",
      "lat": 37.2441974,
      "lon": -121.9606681,
      "tags": {
        "amenity": "restaurant",
        "cuisine": "jamaican",
        "name": "Reggae Pot Jamaican Restraurant"
      }
    }
  },
  {
    "source": "osm",
    "external_id": "osm:node:4082245176",
    "name": "Panera Bread",
    "lat": 37.2476057,
    "lng": -121.9562909,
    "address": "15200 Los Gatos Boulevard Los Gatos",
    "phone": "+14083562142",
    "website": "https://locations.panerabread.com/ca/los-gatos/15200-los-gatos-blvd.html",
    "category_hint": "fast_food",
    "confidence": 0.6,
    "raw_payload": {
      "id": 4082245176,
      "type": "node",
      "lat": 37.2476057,
      "lon": -121.9562909,
      "tags": {
        "addr:city": "Los Gatos",
        "addr:housenumber": "15200",
        "addr:postcode": "95032",
        "addr:state": "CA",
        "addr:street": "Los Gatos Boulevard",
        "addr:unit": "100",
        "amenity": "fast_food",
        "branch": "Los Gatos - The Boulevard",
        "brand": "Panera Bread",
        "brand:wikidata": "Q7130852",
        "cuisine": "sandwich;bakery",
        "delivery": "yes",
        "indoor_seating": "yes",
        "name": "Panera Bread",
        "opening_hours": "Mo-Sa 06:00-21:00; Su 07:00-21:00",
        "phone": "+1 408-356-2142",
        "short_name": "Panera",
        "takeaway": "yes",
        "website": "https://locations.panerabread.com/ca/los-gatos/15200-los-gatos-blvd.html"
      }
    }
  },
  {
    "source": "osm",
    "external_id": "osm:node:4139637684",
    "name": "Starbucks",
    "lat": 37.2537217,
    "lng": -121.952516,
    "address": "14777 Los Gatos Boulevard Los Gatos",
    "phone": "+14083563862",
    "website": "https://www.starbucks.com/store-locator/store/7404/los-gatos-hwy-85-14777-los-gatos-blvd-100-los-gatos-ca-950322059-us",
    "category_hint": "cafe",
    "confidence": 0.6,
    "raw_payload": {
      "id": 4139637684,
      "type": "node",
      "lat": 37.2537217,
      "lon": -121.952516,
      "tags": {
        "addr:city": "Los Gatos",
        "addr:housenumber": "14777",
        "addr:postcode": "95032",
        "addr:state": "CA",
        "addr:street": "Los Gatos Boulevard",
        "addr:unit": "100",
        "amenity": "cafe",
        "branch": "Los Gatos & Highway 85",
        "brand": "Starbucks",
        "brand:wikidata": "Q37158",
        "cuisine": "coffee_shop",
        "name": "Starbucks",
        "official_name": "Starbucks Coffee",
        "phone": "+1 408-356-3862",
        "ref": "7404",
        "takeaway": "yes",
        "website": "https://www.starbucks.com/store-locator/store/7404/los-gatos-hwy-85-14777-los-gatos-blvd-100-los-gatos-ca-950322059-us"
      }
    }
  },
  {
    "source": "osm",
    "external_id": "osm:node:4139637685",
    "name": "Subway",
    "lat": 37.2535396,
    "lng": -121.952667,
    "address": "14777 Los Gatos Boulevard Los Gatos",
    "phone": "+14083568193",
    "website": "https://restaurants.subway.com/united-states/ca/los-gatos/14777-los-gatos-blvd",
    "category_hint": "fast_food",
    "confidence": 0.6,
    "raw_payload": {
      "id": 4139637685,
      "type": "node",
      "lat": 37.2535396,
      "lon": -121.952667,
      "tags": {
        "addr:city": "Los Gatos",
        "addr:housenumber": "14777",
        "addr:postcode": "95032",
        "addr:state": "CA",
        "addr:street": "Los Gatos Boulevard",
        "addr:unit": "103",
        "amenity": "fast_food",
        "brand": "Subway",
        "brand:wikidata": "Q244457",
        "cuisine": "sandwich",
        "name": "Subway",
        "opening_hours": "Mo-Fr 06:00-22:00; Sa-Su 08:00-22:00",
        "phone": "+1 408-356-8193",
        "takeaway": "yes",
        "website": "https://restaurants.subway.com/united-states/ca/los-gatos/14777-los-gatos-blvd"
      }
    }
  },
  {
    "source": "osm",
    "external_id": "osm:node:4927307433",
    "name": "Campo Di Bocci",
    "lat": 37.2322005,
    "lng": -121.9779863,
    "address": "560 University Avenue Los Gatos",
    "phone": "+14083957650",
    "website": "https://campodibocce.com/los-gatos/",
    "category_hint": "restaurant",
    "confidence": 0.6,
    "raw_payload": {
      "id": 4927307433,
      "type": "node",
      "lat": 37.2322005,
      "lon": -121.9779863,
      "tags": {
        "addr:city": "Los Gatos",
        "addr:housenumber": "560",
        "addr:postcode": "95030",
        "addr:state": "CA",
        "addr:street": "University Avenue",
        "amenity": "restaurant",
        "cuisine": "italian",
        "name": "Campo Di Bocci",
        "opening_hours": "Su-Th 10:00-23:00, Fr-Sa 10:00-24:00",
        "outdoor_seating": "yes",
        "phone": "+1-408-395-7650",
        "website": "https://campodibocce.com/los-gatos/"
      }
    }
  },
  {
    "source": "osm",
    "external_id": "osm:node:5140351146",
    "name": "Los Gatos Meat Smokehouse",
    "lat": 37.2326947,
    "lng": -121.9776324,
    "address": null,
    "phone": null,
    "website": null,
    "category_hint": "deli",
    "confidence": 0.6,
    "raw_payload": {
      "id": 5140351146,
      "type": "node",
      "lat": 37.2326947,
      "lon": -121.9776324,
      "tags": {
        "name": "Los Gatos Meat Smokehouse",
        "shop": "deli"
      }
    }
  },
  {
    "source": "osm",
    "external_id": "osm:node:5810935073",
    "name": "7-Eleven",
    "lat": 37.2356896,
    "lng": -121.9781636,
    "address": "657 North Santa Cruz Avenue Los Gatos",
    "phone": "+14083545733",
    "website": "https://www.7-eleven.com/locations/ca/los-gatos/657-n-santa-cruz-ave-14221",
    "category_hint": "convenience",
    "confidence": 0.6,
    "raw_payload": {
      "id": 5810935073,
      "type": "node",
      "lat": 37.2356896,
      "lon": -121.9781636,
      "tags": {
        "addr:city": "Los Gatos",
        "addr:housenumber": "657",
        "addr:postcode": "95030-4333",
        "addr:state": "CA",
        "addr:street": "North Santa Cruz Avenue",
        "atm": "yes",
        "brand": "7-Eleven",
        "brand:wikidata": "Q259340",
        "contact:website": "https://www.7-eleven.com/locations/ca/los-gatos/657-n-santa-cruz-ave-14221",
        "fast_food": "yes",
        "fuel:propane": "yes",
        "name": "7-Eleven",
        "phone": "+1 408-354-5733",
        "ref": "14221",
        "shop": "convenience",
        "website": "https://www.7-eleven.com/locations/ca/los-gatos/657-n-santa-cruz-ave-14221",
        "wheelchair": "yes"
      }
    }
  },
  {
    "source": "osm",
    "external_id": "osm:node:5973274328",
    "name": "Chipotle",
    "lat": 37.238217,
    "lng": -121.9622066,
    "address": null,
    "phone": null,
    "website": null,
    "category_hint": "fast_food",
    "confidence": 0.6,
    "raw_payload": {
      "id": 5973274328,
      "type": "node",
      "lat": 37.238217,
      "lon": -121.9622066,
      "tags": {
        "alt_name": "Chipotle Mexican Grill",
        "amenity": "fast_food",
        "brand": "Chipotle",
        "brand:wikidata": "Q465751",
        "contact:website": "https://chipotle.com/",
        "cuisine": "mexican",
        "name": "Chipotle",
        "official_name": "Chipotle Mexican Grill",
        "takeaway": "yes"
      }
    }
  },
  {
    "source": "osm",
    "external_id": "osm:node:6307708474",
    "name": "Rosy's Yogurt",
    "lat": 37.2310244,
    "lng": -121.9797395,
    "address": "464 North Santa Cruz Avenue Los Gatos",
    "phone": "+14083951150",
    "website": null,
    "category_hint": "ice_cream",
    "confidence": 0.6,
    "raw_payload": {
      "id": 6307708474,
      "type": "node",
      "lat": 37.2310244,
      "lon": -121.9797395,
      "tags": {
        "addr:city": "Los Gatos",
        "addr:country": "US",
        "addr:housenumber": "464",
        "addr:postcode": "95030",
        "addr:state": "CA",
        "addr:street": "North Santa Cruz Avenue",
        "amenity": "ice_cream",
        "name": "Rosy's Yogurt",
        "phone": "+1-408-395-1150"
      }
    }
  },
  {
    "source": "osm",
    "external_id": "osm:node:6307708475",
    "name": "T-Bird's Pizza",
    "lat": 37.2309407,
    "lng": -121.979823,
    "address": "444 North Santa Cruz Avenue Los Gatos",
    "phone": "+14083952525",
    "website": null,
    "category_hint": "restaurant",
    "confidence": 0.6,
    "raw_payload": {
      "id": 6307708475,
      "type": "node",
      "lat": 37.2309407,
      "lon": -121.979823,
      "tags": {
        "addr:city": "Los Gatos",
        "addr:country": "US",
        "addr:housenumber": "444",
        "addr:postcode": "95030",
        "addr:state": "CA",
        "addr:street": "North Santa Cruz Avenue",
        "amenity": "restaurant",
        "cuisine": "pizza",
        "name": "T-Bird's Pizza",
        "phone": "+1-408-395-2525"
      }
    }
  },
  {
    "source": "osm",
    "external_id": "osm:node:6344105469",
    "name": "La Esquina",
    "lat": 37.233663,
    "lng": -121.9789253,
    "address": "551 North Santa Cruz Avenue Los Gatos",
    "phone": "+14083544545",
    "website": "https://laesquinalg.com/",
    "category_hint": "restaurant",
    "confidence": 0.6,
    "raw_payload": {
      "id": 6344105469,
      "type": "node",
      "lat": 37.233663,
      "lon": -121.9789253,
      "tags": {
        "addr:city": "Los Gatos",
        "addr:country": "US",
        "addr:housenumber": "551",
        "addr:postcode": "95030",
        "addr:state": "CA",
        "addr:street": "North Santa Cruz Avenue",
        "amenity": "restaurant",
        "cuisine": "mexican",
        "name": "La Esquina",
        "phone": "+1-408-354-4545",
        "website": "https://laesquinalg.com/"
      }
    }
  },
  {
    "source": "osm",
    "external_id": "osm:node:6571275020",
    "name": "Maple Leaf Donuts",
    "lat": 37.2332987,
    "lng": -121.9779863,
    "address": null,
    "phone": null,
    "website": null,
    "category_hint": "fast_food",
    "confidence": 0.6,
    "raw_payload": {
      "id": 6571275020,
      "type": "node",
      "lat": 37.2332987,
      "lon": -121.9779863,
      "tags": {
        "amenity": "fast_food",
        "name": "Maple Leaf Donuts"
      }
    }
  },
  {
    "source": "osm",
    "external_id": "osm:node:6571275024",
    "name": "Subway",
    "lat": 37.2333708,
    "lng": -121.9786178,
    "address": "540 Santa Cruz Avenue Los Gatos",
    "phone": "+14083952090",
    "website": "https://restaurants.subway.com/united-states/ca/los-gatos/540-b-santa-cruz-avenue",
    "category_hint": "fast_food",
    "confidence": 0.6,
    "raw_payload": {
      "id": 6571275024,
      "type": "node",
      "lat": 37.2333708,
      "lon": -121.9786178,
      "tags": {
        "addr:city": "Los Gatos",
        "addr:housenumber": "540",
        "addr:postcode": "95030",
        "addr:state": "CA",
        "addr:street": "Santa Cruz Avenue",
        "addr:unit": "B",
        "amenity": "fast_food",
        "brand": "Subway",
        "brand:wikidata": "Q244457",
        "cuisine": "sandwich",
        "name": "Subway",
        "opening_hours": "Mo-Fr 07:30-21:00; Sa 07:30-20:00; Su 08:00-19:00",
        "phone": "+1 408-395-2090",
        "takeaway": "yes",
        "website": "https://restaurants.subway.com/united-states/ca/los-gatos/540-b-santa-cruz-avenue"
      }
    }
  },
  {
    "source": "osm",
    "external_id": "osm:node:6625305331",
    "name": "Safeway",
    "lat": 37.231425,
    "lng": -121.9790836,
    "address": "470 North Santa Cruz Avenue Los Gatos",
    "phone": "+14083549708",
    "website": "https://local.safeway.com/safeway/ca/los-gatos/470-n-santa-cruz-ave.html",
    "category_hint": "supermarket",
    "confidence": 0.6,
    "raw_payload": {
      "id": 6625305331,
      "type": "node",
      "lat": 37.231425,
      "lon": -121.9790836,
      "tags": {
        "addr:city": "Los Gatos",
        "addr:housenumber": "470",
        "addr:postcode": "95030",
        "addr:state": "CA",
        "addr:street": "North Santa Cruz Avenue",
        "brand": "Safeway",
        "brand:wikidata": "Q1508234",
        "designation": "Safeway 2815",
        "name": "Safeway",
        "opening_hours": "24/7",
        "phone": "+1 408-354-9708",
        "shop": "supermarket",
        "website": "https://local.safeway.com/safeway/ca/los-gatos/470-n-santa-cruz-ave.html"
      }
    }
  },
  {
    "source": "osm",
    "external_id": "osm:node:6625305336",
    "name": "The Bywater",
    "lat": 37.2327651,
    "lng": -121.9789374,
    "address": "532 North Santa Cruz Avenue Los Gatos",
    "phone": null,
    "website": "https://www.thebywaterca.com/",
    "category_hint": "restaurant",
    "confidence": 0.6,
    "raw_payload": {
      "id": 6625305336,
      "type": "node",
      "lat": 37.2327651,
      "lon": -121.9789374,
      "tags": {
        "addr:city": "Los Gatos",
        "addr:housenumber": "532",
        "addr:postcode": "95030",
        "addr:state": "CA",
        "addr:street": "North Santa Cruz Avenue",
        "amenity": "restaurant",
        "name": "The Bywater",
        "website": "https://www.thebywaterca.com/"
      }
    }
  },
  {
    "source": "osm",
    "external_id": "osm:node:8198287594",
    "name": "Chevron",
    "lat": 37.23525,
    "lng": -121.962644,
    "address": "700 Blossom Hill Road Los Gatos",
    "phone": null,
    "website": null,
    "category_hint": "convenience",
    "confidence": 0.6,
    "raw_payload": {
      "id": 8198287594,
      "type": "node",
      "lat": 37.23525,
      "lon": -121.962644,
      "tags": {
        "addr:city": "Los Gatos",
        "addr:housenumber": "700",
        "addr:postcode": "95032",
        "addr:state": "CA",
        "addr:street": "Blossom Hill Road",
        "brand": "Chevron",
        "brand:wikidata": "Q319642",
        "name": "Chevron",
        "name:pronunciation": "lɒs ˈɡɑːtəs ˈʃɛvɹɑn",
        "shop": "convenience"
      }
    }
  },
  {
    "source": "osm",
    "external_id": "osm:node:8459342370",
    "name": "Sandwich Maker",
    "lat": 37.2521936,
    "lng": -121.966987,
    "address": "987 University Avenue Los Gatos",
    "phone": null,
    "website": null,
    "category_hint": "fast_food",
    "confidence": 0.6,
    "raw_payload": {
      "id": 8459342370,
      "type": "node",
      "lat": 37.2521936,
      "lon": -121.966987,
      "tags": {
        "addr:city": "Los Gatos",
        "addr:housenumber": "987",
        "addr:postcode": "95032",
        "addr:state": "CA",
        "addr:street": "University Avenue",
        "addr:unit": "38",
        "amenity": "fast_food",
        "cuisine": "sandwich",
        "name": "Sandwich Maker",
        "operator": "Gourmet Sandwich Company"
      }
    }
  },
  {
    "source": "osm",
    "external_id": "osm:node:10778742198",
    "name": "Super Duper Burger",
    "lat": 37.2360983,
    "lng": -121.9633367,
    "address": "15991 Los Gatos Boulevard Los Gatos",
    "phone": "+14083560684",
    "website": "https://www.superduperburgers.com/",
    "category_hint": "fast_food",
    "confidence": 0.6,
    "raw_payload": {
      "id": 10778742198,
      "type": "node",
      "lat": 37.2360983,
      "lon": -121.9633367,
      "tags": {
        "addr:city": "Los Gatos",
        "addr:housenumber": "15991",
        "addr:postcode": "95032",
        "addr:state": "CA",
        "addr:street": "Los Gatos Boulevard",
        "addr:unit": "3",
        "amenity": "fast_food",
        "cuisine": "burger;american",
        "drive_through": "no",
        "name": "Super Duper Burger",
        "operator": "Super Duper Burger",
        "phone": "+1-408-356-0684",
        "website": "https://www.superduperburgers.com/"
      }
    }
  },
  {
    "source": "osm",
    "external_id": "osm:node:11147347025",
    "name": "Chipotle",
    "lat": 37.2352435,
    "lng": -121.9636815,
    "address": "640 Blossom Hill Road Los Gatos",
    "phone": "+14083537133",
    "website": "https://locations.chipotle.com/ca/los-gatos/640-blossom-hill-rd",
    "category_hint": "fast_food",
    "confidence": 0.6,
    "raw_payload": {
      "id": 11147347025,
      "type": "node",
      "lat": 37.2352435,
      "lon": -121.9636815,
      "tags": {
        "addr:city": "Los Gatos",
        "addr:housenumber": "640",
        "addr:postcode": "95032",
        "addr:state": "CA",
        "addr:street": "Blossom Hill Road",
        "amenity": "fast_food",
        "brand": "Chipotle",
        "brand:wikidata": "Q465751",
        "check_date": "2023-08-26",
        "cuisine": "mexican",
        "name": "Chipotle",
        "official_name": "Chipotle Mexican Grill",
        "phone": "+1 408-353-7133",
        "takeaway": "yes",
        "website": "https://locations.chipotle.com/ca/los-gatos/640-blossom-hill-rd"
      }
    }
  },
  {
    "source": "osm",
    "external_id": "osm:node:11917622206",
    "name": "SAJJ Mediterranean",
    "lat": 37.2359736,
    "lng": -121.9635663,
    "address": "681 Blossom Hill Road Los Gatos",
    "phone": "+18853842868",
    "website": "https://www.sajjstreeteats.com/location/los-gatos-kitchen/",
    "category_hint": "restaurant",
    "confidence": 0.6,
    "raw_payload": {
      "id": 11917622206,
      "type": "node",
      "lat": 37.2359736,
      "lon": -121.9635663,
      "tags": {
        "addr:city": "Los Gatos",
        "addr:housenumber": "681",
        "addr:postcode": "95032",
        "addr:state": "CA",
        "addr:street": "Blossom Hill Road",
        "amenity": "restaurant",
        "contact:facebook": "https://www.facebook.com/SajjStreetEats/",
        "contact:instagram": "sajjstreeteats",
        "contact:linkedin": "https://www.linkedin.com/company/sajjstreeteats/",
        "contact:twitter": "sajjstreeteats",
        "cuisine": "mediterranean",
        "email": "contact@sajjstreeteats.com",
        "name": "SAJJ Mediterranean",
        "opening_hours": "11:00-24:00",
        "phone": "+1 885 384 2868",
        "website": "https://www.sajjstreeteats.com/location/los-gatos-kitchen/",
        "website:menu": "https://www.sajjstreeteats.com/menus/"
      }
    }
  },
  {
    "source": "osm",
    "external_id": "osm:way:203032342",
    "name": "Classic Burgers of Los Gatos",
    "lat": 37.2399654,
    "lng": -121.961415,
    "address": null,
    "phone": null,
    "website": null,
    "category_hint": "fast_food",
    "confidence": 0.6,
    "raw_payload": {
      "id": 203032342,
      "type": "way",
      "lat": 37.2399654,
      "lon": -121.961415,
      "tags": {
        "amenity": "fast_food",
        "building": "retail",
        "name": "Classic Burgers of Los Gatos"
      }
    }
  },
  {
    "source": "osm",
    "external_id": "osm:way:203032343",
    "name": "Jack in the Box",
    "lat": 37.2394589,
    "lng": -121.9616447,
    "address": "15771 Los Gatos Boulevard Los Gatos",
    "phone": "+14083561049",
    "website": "https://locations.jackinthebox.com/us/ca/los-gatos/15771-los-gatos-blvd",
    "category_hint": "fast_food",
    "confidence": 0.6,
    "raw_payload": {
      "id": 203032343,
      "type": "way",
      "lat": 37.2394589,
      "lon": -121.9616447,
      "tags": {
        "addr:city": "Los Gatos",
        "addr:housenumber": "15771",
        "addr:postcode": "95032",
        "addr:state": "CA",
        "addr:street": "Los Gatos Boulevard",
        "amenity": "fast_food",
        "brand": "Jack in the Box",
        "brand:wikidata": "Q1538507",
        "building": "retail",
        "cuisine": "burger",
        "drive_through": "yes",
        "name": "Jack in the Box",
        "phone": "+1 408-356-1049",
        "takeaway": "yes",
        "website": "https://locations.jackinthebox.com/us/ca/los-gatos/15771-los-gatos-blvd"
      }
    }
  },
  {
    "source": "osm",
    "external_id": "osm:way:203036744",
    "name": "Taco Bell",
    "lat": 37.2342068,
    "lng": -121.963339,
    "address": null,
    "phone": null,
    "website": "https://locations.tacobell.com/ca/los-gatos/16150-los-gatos-boulevard.html",
    "category_hint": "fast_food",
    "confidence": 0.6,
    "raw_payload": {
      "id": 203036744,
      "type": "way",
      "lat": 37.2342068,
      "lon": -121.963339,
      "tags": {
        "amenity": "fast_food",
        "brand": "Taco Bell",
        "brand:wikidata": "Q752941",
        "building": "commercial",
        "cuisine": "tex-mex",
        "name": "Taco Bell",
        "takeaway": "yes",
        "website": "https://locations.tacobell.com/ca/los-gatos/16150-los-gatos-boulevard.html",
        "wheelchair": "yes"
      }
    }
  },
  {
    "source": "osm",
    "external_id": "osm:way:206913228",
    "name": "Rotten Robbie",
    "lat": 37.2460521,
    "lng": -121.9584009,
    "address": "15299 Los Gatos Boulevard Los Gatos",
    "phone": null,
    "website": null,
    "category_hint": "convenience",
    "confidence": 0.6,
    "raw_payload": {
      "id": 206913228,
      "type": "way",
      "lat": 37.2460521,
      "lon": -121.9584009,
      "tags": {
        "addr:city": "Los Gatos",
        "addr:housenumber": "15299",
        "addr:postcode": "95032",
        "addr:state": "CA",
        "addr:street": "Los Gatos Boulevard",
        "brand": "Rotten Robbie",
        "brand:wikidata": "Q87378070",
        "building": "yes",
        "name": "Rotten Robbie",
        "shop": "convenience"
      }
    }
  },
  {
    "source": "osm",
    "external_id": "osm:node:3827875857",
    "name": "Mooyah",
    "lat": 37.2429802,
    "lng": -121.9322944,
    "address": "15529 Union Avenue Los Gatos",
    "phone": "+14089636509",
    "website": "https://www.mooyah.com/",
    "category_hint": "restaurant",
    "confidence": 0.6,
    "raw_payload": {
      "id": 3827875857,
      "type": "node",
      "lat": 37.2429802,
      "lon": -121.9322944,
      "tags": {
        "addr:city": "Los Gatos",
        "addr:housenumber": "15529",
        "addr:postcode": "95032",
        "addr:state": "CA",
        "addr:street": "Union Avenue",
        "amenity": "restaurant",
        "cuisine": "burger",
        "name": "Mooyah",
        "opening_hours": "Su-Th 11:00-21:00, Fr-Sa 11:00-22:00",
        "phone": "+1-408-963-6509",
        "website": "https://www.mooyah.com/"
      }
    }
  },
  {
    "source": "osm",
    "external_id": "osm:node:5821093918",
    "name": "Cafetorium",
    "lat": 37.2420666,
    "lng": -121.9215194,
    "address": null,
    "phone": null,
    "website": null,
    "category_hint": "cafe",
    "confidence": 0.6,
    "raw_payload": {
      "id": 5821093918,
      "type": "node",
      "lat": 37.2420666,
      "lon": -121.9215194,
      "tags": {
        "amenity": "cafe",
        "name": "Cafetorium"
      }
    }
  },
  {
    "source": "osm",
    "external_id": "osm:node:6286734901",
    "name": "Starbucks",
    "lat": 37.2418905,
    "lng": -121.931699,
    "address": "15569 Union Avenue Los Gatos",
    "phone": "+14084426345",
    "website": "https://www.starbucks.com/store-locator/store/1015519/union-los-gatos-almaden-15569-union-avenue-los-gatos-ca-950323904-us",
    "category_hint": "cafe",
    "confidence": 0.6,
    "raw_payload": {
      "id": 6286734901,
      "type": "node",
      "lat": 37.2418905,
      "lon": -121.931699,
      "tags": {
        "addr:city": "Los Gatos",
        "addr:housenumber": "15569",
        "addr:postcode": "95032",
        "addr:state": "CA",
        "addr:street": "Union Avenue",
        "amenity": "cafe",
        "branch": "Union & Los Gatos Almaden",
        "brand": "Starbucks",
        "brand:wikidata": "Q37158",
        "cuisine": "coffee_shop",
        "name": "Starbucks",
        "official_name": "Starbucks Coffee",
        "outdoor_seating": "yes",
        "phone": "+1 408-442-6345",
        "ref": "1015519",
        "takeaway": "yes",
        "website": "https://www.starbucks.com/store-locator/store/1015519/union-los-gatos-almaden-15569-union-avenue-los-gatos-ca-950323904-us"
      }
    }
  },
  {
    "source": "osm",
    "external_id": "osm:node:8643081198",
    "name": "Bascom Liquor & Food",
    "lat": 37.2595705,
    "lng": -121.9464037,
    "address": "3750 South Bascom Avenue San Jose",
    "phone": null,
    "website": null,
    "category_hint": "convenience",
    "confidence": 0.6,
    "raw_payload": {
      "id": 8643081198,
      "type": "node",
      "lat": 37.2595705,
      "lon": -121.9464037,
      "tags": {
        "addr:city": "San Jose",
        "addr:housenumber": "3750",
        "addr:postcode": "95124",
        "addr:state": "CA",
        "addr:street": "South Bascom Avenue",
        "alcohol": "yes",
        "alt_name": "Bascom Liquor and Food",
        "name": "Bascom Liquor & Food",
        "shop": "convenience"
      }
    }
  },
  {
    "source": "osm",
    "external_id": "osm:node:9400523773",
    "name": "Itty Bitty Kitty Cafe",
    "lat": 37.2594446,
    "lng": -121.9301426,
    "address": "14420 Union Avenue San Jose",
    "phone": "+14086948672",
    "website": "http://ibokrescue.or,",
    "category_hint": "cafe",
    "confidence": 0.6,
    "raw_payload": {
      "id": 9400523773,
      "type": "node",
      "lat": 37.2594446,
      "lon": -121.9301426,
      "tags": {
        "addr:city": "San Jose",
        "addr:housenumber": "14420",
        "addr:postcode": "95124",
        "addr:street": "Union Avenue",
        "amenity": "cafe",
        "name": "Itty Bitty Kitty Cafe",
        "phone": "+1-408-694-8672",
        "website": "http://ibokrescue.or,"
      }
    }
  },
  {
    "source": "osm",
    "external_id": "osm:node:11049006557",
    "name": "Pars Kosher Market & Deli",
    "lat": 37.2584395,
    "lng": -121.947484,
    "address": "3978 South Bascom Avenue San Jose",
    "phone": null,
    "website": null,
    "category_hint": "deli",
    "confidence": 0.6,
    "raw_payload": {
      "id": 11049006557,
      "type": "node",
      "lat": 37.2584395,
      "lon": -121.947484,
      "tags": {
        "addr:city": "San Jose",
        "addr:housenumber": "3978",
        "addr:postcode": "95124",
        "addr:street": "South Bascom Avenue",
        "name": "Pars Kosher Market & Deli",
        "shop": "deli"
      }
    }
  },
  {
    "source": "osm",
    "external_id": "osm:node:11049006558",
    "name": "Doña Maria Fresh Mex",
    "lat": 37.2584835,
    "lng": -121.9474507,
    "address": "3974 South Bascom Avenue San Jose",
    "phone": null,
    "website": null,
    "category_hint": "restaurant",
    "confidence": 0.6,
    "raw_payload": {
      "id": 11049006558,
      "type": "node",
      "lat": 37.2584835,
      "lon": -121.9474507,
      "tags": {
        "addr:city": "San Jose",
        "addr:housenumber": "3974",
        "addr:postcode": "95124",
        "addr:street": "South Bascom Avenue",
        "amenity": "restaurant",
        "cuisine": "mexican",
        "name": "Doña Maria Fresh Mex"
      }
    }
  },
  {
    "source": "osm",
    "external_id": "osm:way:252705423",
    "name": "Safeway",
    "lat": 37.2424151,
    "lng": -121.9326148,
    "address": "15549 Union Avenue Los Gatos",
    "phone": "+14085595750",
    "website": "https://local.safeway.com/safeway/ca/los-gatos/15549-union-ave.html",
    "category_hint": "supermarket",
    "confidence": 0.6,
    "raw_payload": {
      "id": 252705423,
      "type": "way",
      "lat": 37.2424151,
      "lon": -121.9326148,
      "tags": {
        "addr:city": "Los Gatos",
        "addr:housenumber": "15549",
        "addr:postcode": "95032",
        "addr:state": "CA",
        "addr:street": "Union Avenue",
        "branch": "1245",
        "brand": "Safeway",
        "brand:wikidata": "Q1508234",
        "building": "yes",
        "designation": "Safeway 1245",
        "layer": "1",
        "name": "Safeway",
        "opening_hours": "24/7",
        "phone": "+1 408-559-5750",
        "shop": "supermarket",
        "website": "https://local.safeway.com/safeway/ca/los-gatos/15549-union-ave.html"
      }
    }
  },
  {
    "source": "osm",
    "external_id": "osm:way:804795330",
    "name": "Bascom Donuts",
    "lat": 37.2587889,
    "lng": -121.9473103,
    "address": "3966 South Bascom Avenue San Jose",
    "phone": null,
    "website": null,
    "category_hint": "fast_food",
    "confidence": 0.6,
    "raw_payload": {
      "id": 804795330,
      "type": "way",
      "lat": 37.2587889,
      "lon": -121.9473103,
      "tags": {
        "addr:city": "San Jose",
        "addr:housenumber": "3966",
        "addr:postcode": "95124",
        "addr:state": "CA",
        "addr:street": "South Bascom Avenue",
        "amenity": "fast_food",
        "building": "yes",
        "cuisine": "donut",
        "ele": "86.08",
        "height": "3.79",
        "name": "Bascom Donuts"
      }
    }
  },
  {
    "source": "osm",
    "external_id": "osm:node:461671351",
    "name": "Lunardi's",
    "lat": 37.2564583,
    "lng": -121.8975834,
    "address": "4650 Meridian Avenue San Jose",
    "phone": "+14082659101",
    "website": "https://www.lunardis.com/san-jose-meridian.html",
    "category_hint": "supermarket",
    "confidence": 0.6,
    "raw_payload": {
      "id": 461671351,
      "type": "node",
      "lat": 37.2564583,
      "lon": -121.8975834,
      "tags": {
        "addr:city": "San Jose",
        "addr:housenumber": "4650",
        "addr:postcode": "95124",
        "addr:state": "CA",
        "addr:street": "Meridian Avenue",
        "name": "Lunardi's",
        "opening_hours": "Mo-Su 07:30-20:00",
        "payment:cash": "yes",
        "payment:contactless": "yes",
        "payment:credit_cards": "yes",
        "payment:debit_cards": "yes",
        "phone": "+1-408-265-9101",
        "shop": "supermarket",
        "website": "https://www.lunardis.com/san-jose-meridian.html"
      }
    }
  },
  {
    "source": "osm",
    "external_id": "osm:node:461674848",
    "name": "Arco",
    "lat": 37.2595709,
    "lng": -121.8907937,
    "address": "1405 Branham Lane San Jose",
    "phone": null,
    "website": null,
    "category_hint": "convenience",
    "confidence": 0.6,
    "raw_payload": {
      "id": 461674848,
      "type": "node",
      "lat": 37.2595709,
      "lon": -121.8907937,
      "tags": {
        "addr:city": "San Jose",
        "addr:housenumber": "1405",
        "addr:postcode": "95118",
        "addr:state": "CA",
        "addr:street": "Branham Lane",
        "brand": "Arco",
        "brand:wikidata": "Q304769",
        "disused:brand": "ampm",
        "disused:brand:wikidata": "Q306960",
        "name": "Arco",
        "old_name": "ampm",
        "shop": "convenience"
      }
    }
  },
  {
    "source": "osm",
    "external_id": "osm:node:461674860",
    "name": "Mountain Mike's",
    "lat": 37.2557752,
    "lng": -121.8969388,
    "address": "1532 Branham Lane San Jose",
    "phone": "+14087233701",
    "website": "https://www.mountainmikespizza.com/locations/san-jose-branham/",
    "category_hint": "restaurant",
    "confidence": 0.6,
    "raw_payload": {
      "id": 461674860,
      "type": "node",
      "lat": 37.2557752,
      "lon": -121.8969388,
      "tags": {
        "addr:city": "San Jose",
        "addr:housenumber": "1532",
        "addr:postcode": "95118",
        "addr:state": "CA",
        "addr:street": "Branham Lane",
        "alt_name": "Mountain Mike's Pizza",
        "amenity": "restaurant",
        "branch": "San Jose/Branham",
        "brand": "Mountain Mike's",
        "brand:wikidata": "Q6925120",
        "contact:facebook": "http://www.facebook.com/498292876888102",
        "cuisine": "pizza",
        "drink:beer": "yes",
        "drink:wine": "yes",
        "name": "Mountain Mike's",
        "opening_hours": "Mo-Th 11:00-21:00; Fr-Sa 11:00-22:00; Su 11:00-21:00",
        "phone": "+1 408-723-3701",
        "ref": "143",
        "takeaway": "yes",
        "television": "yes",
        "website": "https://www.mountainmikespizza.com/locations/san-jose-branham/"
      }
    }
  },
  {
    "source": "osm",
    "external_id": "osm:node:461674864",
    "name": "Sushi Factory",
    "lat": 37.2571718,
    "lng": -121.8978096,
    "address": "4632 Meridian Avenue San Jose",
    "phone": null,
    "website": null,
    "category_hint": "restaurant",
    "confidence": 0.6,
    "raw_payload": {
      "id": 461674864,
      "type": "node",
      "lat": 37.2571718,
      "lon": -121.8978096,
      "tags": {
        "addr:city": "San Jose",
        "addr:housenumber": "4632",
        "addr:postcode": "95124",
        "addr:street": "Meridian Avenue",
        "amenity": "restaurant",
        "name": "Sushi Factory"
      }
    }
  },
  {
    "source": "osm",
    "external_id": "osm:node:692148522",
    "name": "Malibu Grill",
    "lat": 37.2328268,
    "lng": -121.9041807,
    "address": "5735 Camden Avenue San Jose",
    "phone": null,
    "website": null,
    "category_hint": "restaurant",
    "confidence": 0.6,
    "raw_payload": {
      "id": 692148522,
      "type": "node",
      "lat": 37.2328268,
      "lon": -121.9041807,
      "tags": {
        "addr:city": "San Jose",
        "addr:housenumber": "5735",
        "addr:postcode": "95124",
        "addr:street": "Camden Avenue",
        "amenity": "restaurant",
        "name": "Malibu Grill"
      }
    }
  },
  {
    "source": "osm",
    "external_id": "osm:node:1078379408",
    "name": "Papa John's",
    "lat": 37.259245,
    "lng": -121.8915349,
    "address": "1423 Branham Lane San Jose",
    "phone": null,
    "website": null,
    "category_hint": "fast_food",
    "confidence": 0.6,
    "raw_payload": {
      "id": 1078379408,
      "type": "node",
      "lat": 37.259245,
      "lon": -121.8915349,
      "tags": {
        "addr:city": "San Jose",
        "addr:housenumber": "1423",
        "addr:postcode": "95118",
        "addr:street": "Branham Lane",
        "amenity": "fast_food",
        "brand": "Papa John's",
        "brand:wikidata": "Q2759586",
        "cuisine": "pizza",
        "name": "Papa John's",
        "takeaway": "yes"
      }
    }
  },
  {
    "source": "osm",
    "external_id": "osm:node:1180092209",
    "name": "Pizza Hut Express",
    "lat": 37.2398175,
    "lng": -121.9041128,
    "address": null,
    "phone": null,
    "website": null,
    "category_hint": "fast_food",
    "confidence": 0.6,
    "raw_payload": {
      "id": 1180092209,
      "type": "node",
      "lat": 37.2398175,
      "lon": -121.9041128,
      "tags": {
        "amenity": "fast_food",
        "brand": "Pizza Hut",
        "brand:wikidata": "Q191615",
        "cuisine": "pizza",
        "name": "Pizza Hut Express",
        "takeaway": "yes"
      }
    }
  },
  {
    "source": "osm",
    "external_id": "osm:node:1180092210",
    "name": "Taco Bell",
    "lat": 37.2398399,
    "lng": -121.904034,
    "address": "5431 Camden Avenue San Jose",
    "phone": "+14082661533",
    "website": "https://locations.tacobell.com/ca/san-jose/5431-camden-ave-.html",
    "category_hint": "fast_food",
    "confidence": 0.6,
    "raw_payload": {
      "id": 1180092210,
      "type": "node",
      "lat": 37.2398399,
      "lon": -121.904034,
      "tags": {
        "addr:city": "San Jose",
        "addr:housenumber": "5431",
        "addr:postcode": "95124",
        "addr:state": "CA",
        "addr:street": "Camden Avenue",
        "amenity": "fast_food",
        "brand": "Taco Bell",
        "brand:wikidata": "Q752941",
        "cuisine": "tex-mex",
        "name": "Taco Bell",
        "opening_hours": "Mo-Th 08:00-01:00; Fr-Sa 08:00-02:00; Su 08:00-01:00",
        "operator": "Golden Gate Bell",
        "phone": "+1 408-266-1533",
        "takeaway": "yes",
        "website": "https://locations.tacobell.com/ca/san-jose/5431-camden-ave-.html"
      }
    }
  },
  {
    "source": "osm",
    "external_id": "osm:node:1194968192",
    "name": "7-Eleven",
    "lat": 37.2326337,
    "lng": -121.904177,
    "address": "5745 Camden Avenue San Jose",
    "phone": "+14082671150",
    "website": "https://www.7-eleven.com/locations/ca/san-jose/5745-camden-avenue-14262",
    "category_hint": "convenience",
    "confidence": 0.6,
    "raw_payload": {
      "id": 1194968192,
      "type": "node",
      "lat": 37.2326337,
      "lon": -121.904177,
      "tags": {
        "addr:city": "San Jose",
        "addr:housenumber": "5745",
        "addr:postcode": "95124",
        "addr:state": "CA",
        "addr:street": "Camden Avenue",
        "atm": "yes",
        "brand": "7-Eleven",
        "brand:wikidata": "Q259340",
        "fast_food": "yes",
        "fuel:propane": "yes",
        "name": "7-Eleven",
        "phone": "+1 408-267-1150",
        "ref": "14262",
        "shop": "convenience",
        "website": "https://www.7-eleven.com/locations/ca/san-jose/5745-camden-avenue-14262"
      }
    }
  },