{
  "city": "berkeley",
  "version": "v1",
  "generated_at": "2026-03-01T00:13:22.025265+00:00",
  "places": [
    {
      "id": "282388068",
      "name": "Caffé Strada",
      "lat": 37.8691109,
      "lng": -122.2548636,
      "category": "cafe",
      "external_url": null,
      "description": null,
      "open_status": "unknown",
      "confidence": "low",
      "raw": {
        "type": "node",
        "id": 282388068,
        "lat": 37.8691109,
        "lon": -122.2548636,
        "tags": {
          "addr:city": "Berkeley",
          "addr:housenumber": "2300",
          "addr:postcode": "94704",
          "addr:state": "CA",
          "addr:street": "College Avenue",
          "alt_name": "Caffe Strada",
          "amenity": "cafe",
          "check_date": "2024-07-31",
          "contact:facebook": "https://www.facebook.com/Caffe-Strada-Berkeley-132397263447164/https://www.facebook.com/Caffe-Strada-Berkeley-132397263447164/",
          "cuisine": "coffee_shop",
          "drive_through": "no",
          "internet_access": "wlan",
          "internet_access:fee": "no",
          "name": "Caffé Strada",
          "outdoor_seating": "yes",
          "phone": "+1-510-843-5282",
          "takeaway": "yes",
          "terrace": "yes",
          "toilets": "yes",
          "toilets:access": "customers",
          "wheelchair": "yes"
        }
      }
    },
    {
      "id": "282601069",
      "name": "Triple Rock Brewery",
      "lat": 37.873419,
      "lng": -122.268746,
      "category": "unknown",
      "external_url": "https://triplerock.com/",
      "description": null,
      "open_status": "unknown",
      "confidence": "low",
      "raw": {
        "type": "node",
        "id": 282601069,
        "lat": 37.873419,
        "lon": -122.268746,
        "tags": {
          "addr:city": "Berkeley",
          "addr:country": "US",
          "addr:housenumber": "1920",
          "addr:postcode": "94704",
          "addr:state": "CA",
          "addr:street": "Shattuck Avenue",
          "amenity": "pub",
          "check_date": "2023-05-20",
          "contact:instagram": "triplerockbeer",
          "craft": "brewery",
          "level": "0",
          "microbrewery": "yes",
          "name": "Triple Rock Brewery",
          "opening_hours": "Tu, Sa 12:00-22:00; We-Fr 12:00-23:00; Su 12:00-21:00",
          "outdoor_seating": "yes",
          "phone": "+1 510 8432739",
          "website": "https://triplerock.com/",
          "wheelchair": "yes",
          "wikidata": "Q16901987"
        }
      }
    },
    {
      "id": "286080783",
      "name": "Henry's",
      "lat": 37.8679894,
      "lng": -122.256551,
      "category": "unknown",
      "external_url": null,
      "description": null,
      "open_status": "unknown",
      "confidence": "low",
      "raw": {
        "type": "node",
        "id": 286080783,
        "lat": 37.8679894,
        "lon": -122.256551,
        "tags": {
          "addr:housenumber": "2600",
          "addr:street": "Durant Avenue",
          "amenity": "pub",
          "check_date": "2024-07-31",
          "name": "Henry's"
        }
      }
    },
    {
      "id": "286081302",
      "name": "Fish & Bird Sousaku Izakaya",
      "lat": 37.8647961,
      "lng": -122.2671401,
      "category": "restaurant",
      "external_url": "https://fishbirdizakaya.com/",
      "description": null,
      "open_status": "unknown",
      "confidence": "low",
      "raw": {
        "type": "node",
        "id": 286081302,
        "lat": 37.8647961,
        "lon": -122.2671401,
        "tags": {
          "addr:city": "Berkeley",
          "addr:housenumber": "2451",
          "addr:postcode": "94704",
          "addr:state": "CA",
          "addr:street": "Shattuck Avenue",
          "amenity": "restaurant",
          "cuisine": "japanese",
          "indoor_seating": "yes",
          "name": "Fish & Bird Sousaku Izakaya",
          "opening_hours": "Mo 16:30-21:00; We,Th 17:00-21:00; Fr,Sa 16:30-21:30; Su 16:30-21:00",
          "outdoor_seating": "no",
          "phone": "+1-510-705-1539",
          "smoking": "no",
          "website": "https://fishbirdizakaya.com/",
          "wheelchair": "yes"
        }
      }
    },
    {
      "id": "286081304",
      "name": "Royal Ground Coffee",
      "lat": 37.8656869,
      "lng": -122.2672122,
      "category": "cafe",
      "external_url": null,
      "description": null,
      "open_status": "unknown",
      "confidence": "low",
      "raw": {
        "type": "node",
        "id": 286081304,
        "lat": 37.8656869,
        "lon": -122.2672122,
        "tags": {
          "addr:city": "Berkeley",
          "addr:housenumber": "2409",
          "addr:postcode": "94704",
          "addr:state": "CA",
          "addr:street": "Shattuck Avenue",
          "amenity": "cafe",
          "check_date": "2023-08-19",
          "indoor_seating": "yes",
          "name": "Royal Ground Coffee",
          "opening_hours": "Mo-Sa 07:00-16:00; Su 07:00-15:00",
          "outdoor_seating": "no",
          "phone": "+1-510-849-9888",
          "wheelchair": "yes"
        }
      }
    },
    {
      "id": "286081305",
      "name": "Penelope's Coffee and Tea",
      "lat": 37.868419,
      "lng": -122.267556,
      "category": "cafe",
      "external_url": "https://penelopescoffee.com/",
      "description": null,
      "open_status": "unknown",
      "confidence": "low",
      "raw": {
        "type": "node",
        "id": 286081305,
        "lat": 37.868419,
        "lon": -122.267556,
        "tags": {
          "addr:city": "Berkeley",
          "addr:country": "US",
          "addr:housenumber": "2255",
          "addr:postcode": "94704",
          "addr:state": "CA",
          "addr:street": "Shattuck Avenue",
          "amenity": "cafe",
          "check_date": "2025-03-31",
          "cuisine": "coffee_shop",
          "level": "0",
          "name": "Penelope's Coffee and Tea",
          "outdoor_seating": "yes",
          "shop": "coffee",
          "smoking": "no",
          "source:name": "sign on building",
          "website": "https://penelopescoffee.com/",
          "wheelchair": "yes"
        }
      }
    },
    {
      "id": "286081409",
      "name": "Brown's",
      "lat": 37.8733273,
      "lng": -122.2648839,
      "category": "fast_food",
      "external_url": "https://dining.berkeley.edu/campus-restaurants/browns/",
      "description": null,
      "open_status": "unknown",
      "confidence": "low",
      "raw": {
        "type": "node",
        "id": 286081409,
        "lat": 37.8733273,
        "lon": -122.2648839,
        "tags": {
          "addr:city": "Berkeley",
          "addr:housenumber": "2255",
          "addr:postcode": "94709",
          "addr:state": "CA",
          "addr:street": "Hearst Avenue",
          "amenity": "fast_food",
          "drive_through": "no",
          "fast_food": "cafeteria",
          "name": "Brown's",
          "opening_hours": "Mo-Fr 07:30-16:30",
          "operator": "University of California - Berkeley",
          "phone": "+1-510-643-8323",
          "website": "https://dining.berkeley.edu/campus-restaurants/browns/"
        }
      }
    },
    {
      "id": "286632448",
      "name": "Quargo Coffee",
      "lat": 37.8679215,
      "lng": -122.2591467,
      "category": "cafe",
      "external_url": null,
      "description": null,
      "open_status": "unknown",
      "confidence": "low",
      "raw": {
        "type": "node",
        "id": 286632448,
        "lat": 37.8679215,
        "lon": -122.2591467,
        "tags": {
          "addr:housenumber": "2344",
          "addr:street": "Telegraph Avenue",
          "amenity": "cafe",
          "check_date": "2025-01-26",
          "cuisine": "coffee_shop",
          "indoor_seating": "yes",
          "name": "Quargo Coffee",
          "outdoor_seating": "no",
          "was:name": "Noah's Bagels"
        }
      }
    },
    {
      "id": "286632968",
      "name": "Local X Design",
      "lat": 37.8704779,
      "lng": -122.2549676,
      "category": "cafe",
      "external_url": "https://dining.berkeley.edu/campus-restaurants/local-x-design/",
      "description": null,
      "open_status": "unknown",
      "confidence": "low",
      "raw": {
        "type": "node",
        "id": 286632968,
        "lat": 37.8704779,
        "lon": -122.2549676,
        "tags": {
          "amenity": "cafe",
          "check_date": "2024-09-30",
          "cuisine": "bagel;salad;sandwich",
          "food": "yes",
          "level": "0",
          "name": "Local X Design",
          "outdoor_seating": "yes",
          "takeaway": "yes",
          "website": "https://dining.berkeley.edu/campus-restaurants/local-x-design/"
        }
      }
    },
    {
      "id": "288991105",
      "name": "Nation's Giant Hamburgers",
      "lat": 37.8709518,
      "lng": -122.274845,
      "category": "fast_food",
      "external_url": "https://www.nationsrestaurants.com/",
      "description": null,
      "open_status": "unknown",
      "confidence": "low",
      "raw": {
        "type": "node",
        "id": 288991105,
        "lat": 37.8709518,
        "lon": -122.274845,
        "tags": {
          "addr:city": "Berkeley",
          "addr:country": "US",
          "addr:housenumber": "1800",
          "addr:postcode": "94703",
          "addr:state": "CA",
          "addr:street": "University Avenue",
          "amenity": "fast_food",
          "cuisine": "burger",
          "drive_in": "no",
          "microbrewery": "no",
          "name": "Nation's Giant Hamburgers",
          "opening_hours": "Mo-Th, Su 06:00-00:30; Sa, Su 06:00-01:30",
          "phone": "+1 510 8437326",
          "smoking": "no",
          "website": "https://www.nationsrestaurants.com/",
          "wheelchair": "yes"
        }
      }
    },
    {
      "id": "304945803",
      "name": "Damask Rose Coffee",
      "lat": 37.8517585,
      "lng": -122.265928,
      "category": "cafe",
      "external_url": null,
      "description": null,
      "open_status": "unknown",
      "confidence": "low",
      "raw": {
        "type": "node",
        "id": 304945803,
        "lat": 37.8517585,
        "lon": -122.265928,
        "tags": {
          "addr:housenumber": "6605",
          "addr:street": "Shattuck Avenue",
          "amenity": "cafe",
          "check_date": "2023-06-11",
          "name": "Damask Rose Coffee",
          "wheelchair": "yes"
        }
      }
    },
    {
      "id": "304945804",
      "name": "Nomad Cafe",
      "lat": 37.8504805,
      "lng": -122.2656935,
      "category": "cafe",
      "external_url": "https://order.online/store/1304915?pickup=true&redirected=true",
      "description": null,
      "open_status": "unknown",
      "confidence": "low",
      "raw": {
        "type": "node",
        "id": 304945804,
        "lat": 37.8504805,
        "lon": -122.2656935,
        "tags": {
          "addr:city": "Oakland",
          "addr:housenumber": "6500",
          "addr:street": "Shattuck Avenue",
          "amenity": "cafe",
          "check_date": "2025-07-20",
          "check_date:currency:XBT": "2025-11-14",
          "check_date:opening_hours": "2025-07-20",
          "contact:facebook": "https://www.facebook.com/6500shattuck/",
          "contact:yelp": "https://www.yelp.com/biz/nomad-cafe-oakland",
          "cuisine": "coffee_shop",
          "currency:XBT": "yes",
          "email": "nomadcafe6500@gmail.com",
          "name": "Nomad Cafe",
          "opening_hours": "Mo-Su 07:00-17:00",
          "payment:lightning": "yes",
          "payment:lightning:operator": "square",
          "payment:lightning_contactless": "no",
          "payment:onchain": "no",
          "phone": "+1 510 496-4200",
          "website": "https://order.online/store/1304915?pickup=true&redirected=true"
        }
      }
    },
    {
      "id": "308447576",
      "name": "Homemade Cafe",
      "lat": 37.8622626,
      "lng": -122.281359,
      "category": "restaurant",
      "external_url": "https://www.homemade-cafe.com/",
      "description": null,
      "open_status": "unknown",
      "confidence": "low",
      "raw": {
        "type": "node",
        "id": 308447576,
        "lat": 37.8622626,
        "lon": -122.281359,
        "tags": {
          "addr:city": "Berkeley",
          "addr:housenumber": "2454",
          "addr:street": "Sacramento Street",
          "amenity": "restaurant",
          "amenity_1": "cafe",
          "cuisine": "brunch;coffee_shop",
          "diet:vegan": "no",
          "diet:vegetarian": "yes",
          "name": "Homemade Cafe",
          "opening_hours": "Mo-Fr 07:00-14:00; Sa, Su 08:00-15:00",
          "phone": "+1-510-845-1940",
          "website": "https://www.homemade-cafe.com/",
          "wheelchair": "yes"
        }
      }
    },
    {
      "id": "308813308",
      "name": "Yeti Sports Bar and Restaurant",
      "lat": 37.848843,
      "lng": -122.2717542,
      "category": "bar",
      "external_url": null,
      "description": null,
      "open_status": "unknown",
      "confidence": "low",
      "raw": {
        "type": "node",
        "id": 308813308,
        "lat": 37.848843,
        "lon": -122.2717542,
        "tags": {
          "addr:city": "Berkeley",
          "addr:country": "US",
          "addr:housenumber": "3290",
          "addr:postcode": "94703",
          "addr:state": "CA",
          "addr:street": "Adeline Street",
          "amenity": "bar",
          "name": "Yeti Sports Bar and Restaurant"
        }
      }
    },
    {
      "id": "308995420",
      "name": "Headland's Brewing",
      "lat": 37.8687031,
      "lng": -122.2606942,
      "category": "unknown",
      "external_url": "https://www.headlandsbrewing.com/on-campus-berkeley",
      "description": null,
      "open_status": "unknown",
      "confidence": "low",
      "raw": {
        "type": "node",
        "id": 308995420,
        "lat": 37.8687031,
        "lon": -122.2606942,
        "tags": {
          "addr:housenumber": "2465",
          "addr:street": "Bancroft Way",
          "addr:unit": "14-",
          "amenity": "pub",
          "name": "Headland's Brewing",
          "was:name": "Bear's Lair",
          "website": "https://www.headlandsbrewing.com/on-campus-berkeley"
        }
      }
    },
    {
      "id": "314115388",
      "name": "Lo Coco's",
      "lat": 37.8817265,
      "lng": -122.26981,
      "category": "restaurant",
      "external_url": "https://www.lococosberkeley.com/",
      "description": null,
      "open_status": "unknown",
      "confidence": "low",
      "raw": {
        "type": "node",
        "id": 314115388,
        "lat": 37.8817265,
        "lon": -122.26981,
        "tags": {
          "addr:city": "Berkeley",
          "addr:country": "US",
          "addr:housenumber": "1400",
          "addr:postcode": "94709",
          "addr:state": "CA",
          "addr:street": "Shattuck Avenue",
          "amenity": "restaurant",
          "cuisine": "italian;pizza",
          "name": "Lo Coco's",
          "phone": "+1-510-843-3745",
          "website": "https://www.lococosberkeley.com/"
        }
      }
    },
    {
      "id": "314115398",
      "name": "Saul's Deli",
      "lat": 37.8806944,
      "lng": -122.269035,
      "category": "restaurant",
      "external_url": "http://www.saulsdeli.com/",
      "description": null,
      "open_status": "unknown",
      "confidence": "low",
      "raw": {
        "type": "node",
        "id": 314115398,
        "lat": 37.8806944,
        "lon": -122.269035,
        "tags": {
          "addr:city": "Berkeley",
          "addr:country": "US",
          "addr:housenumber": "1475",
          "addr:state": "CA",
          "addr:street": "Shattuck Avenue",
          "amenity": "restaurant",
          "cuisine": "jewish",
          "drive_in": "no",
          "microbrewery": "no",
          "name": "Saul's Deli",
          "opening_hours": "Mo-Su 08:00-21:00",
          "outdoor_seating": "parklet",
          "smoking": "no",
          "takeaway": "yes",
          "website": "http://www.saulsdeli.com/",
          "wheelchair": "yes"
        }
      }
    },
    {
      "id": "314115403",
      "name": "Ijo Izakaya",
      "lat": 37.8809246,
      "lng": -122.2690658,
      "category": "restaurant",
      "external_url": "https://www.ijoizakaya.com/",
      "description": null,
      "open_status": "unknown",
      "confidence": "low",
      "raw": {
        "type": "node",
        "id": 314115403,
        "lat": 37.8809246,
        "lon": -122.2690658,
        "tags": {
          "addr:city": "Berkeley",
          "addr:country": "US",
          "addr:housenumber": "1463",
          "addr:postcode": "94709",
          "addr:state": "CA",
          "addr:street": "Shattuck Avenue",
          "amenity": "restaurant",
          "cuisine": "japanese",
          "name": "Ijo Izakaya",
          "opening_hours": "Mo, We-Fr 11:30-14:30, 17:00-21:30; Sa-Su 12:00-15:00, 17:00-22:00",
          "outdoor_seating": "no",
          "phone": "+1-510-6795200",
          "website": "https://www.ijoizakaya.com/"
        }
      }
    },
    {
      "id": "314115409",
      "name": "Kirala 2",
      "lat": 37.8798086,
      "lng": -122.269013,
      "category": "restaurant",
      "external_url": null,
      "description": null,
      "open_status": "unknown",
      "confidence": "low",
      "raw": {
        "type": "node",
        "id": 314115409,
        "lat": 37.8798086,
        "lon": -122.269013,
        "tags": {
          "amenity": "restaurant",
          "cuisine": "japanese",
          "name": "Kirala 2",
          "opening_hours": "Mo-Su 11:00-19:00"
        }
      }
    },
    {
      "id": "314115417",
      "name": "Mexicana Taqueria",
      "lat": 37.8798656,
      "lng": -122.268921,
      "category": "fast_food",
      "external_url": "https://www.mexicanataqueria.com/",
      "description": null,
      "open_status": "unknown",
      "confidence": "low",
      "raw": {
        "type": "node",
        "id": 314115417,
        "lat": 37.8798656,
        "lon": -122.268921,
        "tags": {
          "amenity": "fast_food",
          "cuisine": "mexican",
          "name": "Mexicana Taqueria",
          "opening_hours": "Mo-Su 11:00-19:00",
          "phone": "+1-510-6292040",
          "website": "https://www.mexicanataqueria.com/"
        }
      }
    },
    {
      "id": "314115419",
      "name": "Flavia",
      "lat": 37.8798563,
      "lng": -122.269013,
      "category": "restaurant",
      "external_url": "https://www.flaviaosteria.com/",
      "description": null,
      "open_status": "unknown",
      "confidence": "low",
      "raw": {
        "type": "node",
        "id": 314115419,
        "lat": 37.8798563,
        "lon": -122.269013,
        "tags": {
          "addr:city": "Berkeley",
          "addr:country": "US",
          "addr:housenumber": "1511",
          "addr:postcode": "94704",
          "addr:state": "CA",
          "addr:street": "Shattuck Avenue",
          "amenity": "restaurant",
          "cuisine": "italian",
          "name": "Flavia",
          "phone": "+1-510-629-2030",
          "website": "https://www.flaviaosteria.com/"
        }
      }
    },
    {
      "id": "314115422",
      "name": "Tigerlily Berkeley",
      "lat": 37.8797331,
      "lng": -122.269,
      "category": "restaurant",
      "external_url": "https://www.tigerlily-berkeley.com/",
      "description": null,
      "open_status": "unknown",
      "confidence": "low",
      "raw": {
        "type": "node",
        "id": 314115422,
        "lat": 37.8797331,
        "lon": -122.269,
        "tags": {
          "addr:city": "Berkeley",
          "addr:country": "US",
          "addr:housenumber": "1513",
          "addr:postcode": "94709",
          "addr:state": "CA",
          "addr:street": "Shattuck Avenue",
          "amenity": "restaurant",
          "cuisine": "american;indian",
          "diet:vegetarian": "yes",
          "name": "Tigerlily Berkeley",
          "opening_hours": "Sa,Su 11:00-14:00, Mo-Su 17:00-18:30",
          "phone": "+1 510-540-7900",
          "website": "https://www.tigerlily-berkeley.com/"
        }
      }
    },
    {
      "id": "314115424",
      "name": "Sunny Side Cafe",
      "lat": 37.879861,
      "lng": -122.268736,
      "category": "cafe",
      "external_url": "https://www.thesunnysidecafe.com/",
      "description": null,
      "open_status": "unknown",
      "confidence": "low",
      "raw": {
        "type": "node",
        "id": 314115424,
        "lat": 37.879861,
        "lon": -122.268736,
        "tags": {
          "amenity": "cafe",
          "cuisine": "breakfast;peruvian",
          "food": "yes",
          "name": "Sunny Side Cafe",
          "opening_hours": "Mo,Th,Fr 08:30-14:00,17:00-21:00; Sa 08:30-14:30,17:00-21:00; Su 08:30-14:30,17:00-20:30; Tu,We off",
          "opening_hours:signed": "yes",
          "phone": "+1 510 8981210",
          "website": "https://www.thesunnysidecafe.com/"
        }
      }
    },
    {
      "id": "314115432",
      "name": "Bar Panisse",
      "lat": 37.8796544,
      "lng": -122.2690441,
      "category": "bar",
      "external_url": null,
      "description": null,
      "open_status": "unknown",
      "confidence": "low",
      "raw": {
        "type": "node",
        "id": 314115432,
        "lat": 37.8796544,
        "lon": -122.2690441,
        "tags": {
          "addr:city": "Berkeley",
          "addr:country": "US",
          "addr:housenumber": "1515",
          "addr:postcode": "94709",
          "addr:state": "CA",
          "addr:street": "Shattuck Avenue",
          "amenity": "bar",
          "name": "Bar Panisse",
          "was:amenity": "restaurant",
          "was:cuisine": "spanish",
          "was:name": "César"
        }
      }
    },
    {
      "id": "314115443",
      "name": "Chez Panisse",
      "lat": 37.8795958,
      "lng": -122.26897,
      "category": "restaurant",
      "external_url": "https://www.chezpanisse.com/",
      "description": null,
      "open_status": "unknown",
      "confidence": "low",
      "raw": {
        "type": "node",
        "id": 314115443,
        "lat": 37.8795958,
        "lon": -122.26897,
        "tags": {
          "addr:city": "Berkeley",
          "addr:country": "US",
          "addr:housenumber": "1517",
          "addr:postcode": "94709",
          "addr:state": "CA",
          "addr:street": "Shattuck Avenue",
          "amenity": "restaurant",
          "cuisine": "californian",
          "drive_in": "no",
          "microbrewery": "no",
          "name": "Chez Panisse",
          "opening_hours": "Mo-Tu 11:30-22:30; Fr-Sa 11:30-23:30",
          "phone": "+1-510-548-5049",
          "smoking": "no",
          "website": "https://www.chezpanisse.com/",
          "wikidata": "Q1105811",
          "wikipedia": "en:Chez Panisse"
        }
      }
    },
    {
      "id": "314115473",
      "name": "Cheeseboard Pizza",
      "lat": 37.87986,
      "lng": -122.269469,
      "category": "restaurant",
      "external_url": "https://cheeseboardcollective.coop/",
      "description": null,
      "open_status": "unknown",
      "confidence": "low",
      "raw": {
        "type": "node",
        "id": 314115473,
        "lat": 37.87986,
        "lon": -122.269469,
        "tags": {
          "addr:city": "Berkeley",
          "addr:country": "US",
          "addr:housenumber": "1512",
          "addr:state": "CA",
          "addr:street": "Shattuck Avenue",
          "amenity": "restaurant",
          "check_date": "2023-05-27",
          "contact:facebook": "cheeseboard",
          "contact:instagram": "cheeseboardcoll",
          "contact:twitter": "CheeseBoardColl",
          "cooperative": "yes",
          "cuisine": "pizza",
          "delivery": "no",
          "description:diet": "To order vegan and gluten-free pizzas, ask a worker before getting in line",
          "diet:vegan": "yes",
          "diet:vegetarian": "only",
          "drink:beer": "yes",
          "drink:wine": "yes",
          "drive_in": "no",
          "email": "cheeseboard@mac.com",
          "indoor_seating": "yes",
          "microbrewery": "no",
          "name": "Cheeseboard Pizza",
          "opening_hours": "Mo-Tu,Su off; We-Fr 17:00-20:00; Sa 11:30-14:30,17:00-20:00",
          "opening_hours:url": "https://cheeseboardcollective.coop/pizza/",
          "outdoor_seating": "yes",
          "phone": "+1 510 5493183",
          "smoking": "no",
          "takeaway": "yes",
          "website": "https://cheeseboardcollective.coop/",
          "wheelchair": "yes"
        }
      }
    },
    {
      "id": "314115490",
      "name": "Vanne Bistro",
      "lat": 37.87933,
      "lng": -122.269403,
      "category": "cafe",
      "external_url": "https://senshotelberkeley.com/",
      "description": null,
      "open_status": "unknown",
      "confidence": "low",
      "raw": {
        "type": "node",
        "id": 314115490,
        "lat": 37.87933,
        "lon": -122.269403,
        "tags": {
          "addr:city": "Berkeley",
          "addr:country": "US",
          "addr:housenumber": "1540",
          "addr:state": "CA",
          "addr:street": "Shattuck Avenue",
          "amenity": "cafe",
          "cuisine": "coffee_shop",
          "internet_access": "wlan",
          "internet_access:fee": "no",
          "name": "Vanne Bistro",
          "old_name": "The French Hotel Cafe",
          "opening_hours": "Mo-Fr 06:00-20:00; Su 07:00-19:00; Sa 06:30-20:00",
          "outdoor_seating": "yes",
          "phone": "+1 510 5489930",
          "smoking": "no",
          "takeaway": "yes",
          "website": "https://senshotelberkeley.com/",
          "wheelchair": "yes"
        }
      }
    },
    {
      "id": "314115506",
      "name": "Barney's Gourmet Hamburgers",
      "lat": 37.878223,
      "lng": -122.269441,
      "category": "restaurant",
      "external_url": "https://www.barneyshamburgers.com/",
      "description": null,
      "open_status": "unknown",
      "confidence": "low",
      "raw": {
        "type": "node",
        "id": 314115506,
        "lat": 37.878223,
        "lon": -122.269441,
        "tags": {
          "addr:city": "Berkeley",
          "addr:country": "US",
          "addr:housenumber": "1600",
          "addr:state": "CA",
          "addr:street": "Shattuck Avenue",
          "addr:unit": "112",
          "amenity": "restaurant",
          "check_date": "2023-05-20",
          "cuisine": "burger",
          "drive_in": "no",
          "level": "0",
          "microbrewery": "no",
          "name": "Barney's Gourmet Hamburgers",
          "note": "Suite 112",
          "opening_hours": "Mo-Th,Su 11:00-20:30; Fr-Sa 11:00-21:00",
          "outdoor_seating": "yes",
          "smoking": "no",
          "website": "https://www.barneyshamburgers.com/"
        }
      }
    },
    {
      "id": "314115556",
      "name": "Da Lian",
      "lat": 37.8770733,
      "lng": -122.269164,
      "category": "restaurant",
      "external_url": "https://www.dalianrestaurant.com/",
      "description": null,
      "open_status": "unknown",
      "confidence": "low",
      "raw": {
        "type": "node",
        "id": 314115556,
        "lat": 37.8770733,
        "lon": -122.269164,
        "tags": {
          "addr:country": "US",
          "addr:housenumber": "1674",
          "addr:state": "CA",
          "addr:street": "Shattuck Avenue",
          "amenity": "restaurant",
          "check_date": "2023-03-18",
          "contact:facebook": "https://www.facebook.com/dalianrestaurant/",
          "cuisine": "chinese",
          "diet:vegetarian": "yes",
          "name": "Da Lian",
          "opening_hours": "Mo off; Tu-Fr,Su 11:30-14:30,16:30-21:00; Sa 16:30-21:00",
          "phone": "+1 510-883-1883",
          "website": "https://www.dalianrestaurant.com/"
        }
      }
    },
    {
      "id": "314115558",
      "name": "Cha Ya",
      "lat": 37.8768171,
      "lng": -122.269123,
      "category": "restaurant",
      "external_url": "https://www.chaya-berkeley.com/",
      "description": null,
      "open_status": "unknown",
      "confidence": "low",
      "raw": {
        "type": "node",
        "id": 314115558,
        "lat": 37.8768171,
        "lon": -122.269123,
        "tags": {
          "addr:city": "Berkeley",
          "addr:country": "US",
          "addr:housenumber": "1686",
          "addr:state": "CA",
          "addr:street": "Shattuck Avenue",
          "amenity": "restaurant",
          "cuisine": "japanese",
          "diet:vegan": "only",
          "diet:vegetarian": "yes",
          "drive_in": "no",
          "microbrewery": "no",
          "name": "Cha Ya",
          "opening_hours": "We-Mo 12:00-20:00",
          "outdoor_seating": "no",
          "smoking": "no",
          "takeaway": "yes",
          "website": "https://www.chaya-berkeley.com/",
          "wheelchair": "yes"
        }
      }
    },
    {
      "id": "314115577",
      "name": "Taste of the Himalayas",
      "lat": 37.876464,
      "lng": -122.269079,
      "category": "restaurant",
      "external_url": "https://www.tasteofthehimalayas.com/",
      "description": null,
      "open_status": "unknown",
      "confidence": "low",
      "raw": {
        "type": "node",
        "id": 314115577,
        "lat": 37.876464,
        "lon": -122.269079,
        "tags": {
          "addr:country": "US",
          "addr:housenumber": "1700",
          "addr:state": "CA",
          "addr:street": "Shattuck Avenue",
          "amenity": "restaurant",
          "cuisine": "indian",
          "diet:vegetarian": "yes",
          "drive_in": "no",
          "microbrewery": "no",
          "name": "Taste of the Himalayas",
          "opening_hours": "We-Su 16:30-20:30",
          "phone": "+1 510-849-4983",
          "website": "https://www.tasteofthehimalayas.com/"
        }
      }
    },
    {
      "id": "314115581",
      "name": "Thai Delight",
      "lat": 37.8763927,
      "lng": -122.269062,
      "category": "restaurant",
      "external_url": "https://www.onlinethaidelightberkeley.com",
      "description": null,
      "open_status": "unknown",
      "confidence": "low",
      "raw": {
        "type": "node",
        "id": 314115581,
        "lat": 37.8763927,
        "lon": -122.269062,
        "tags": {
          "addr:city": "Berkeley",
          "addr:housenumber": "1700",
          "addr:postcode": "94709",
          "addr:state": "CA",
          "addr:street": "Shattuck Avenue",
          "amenity": "restaurant",
          "cuisine": "thai",
          "diet:vegetarian": "yes",
          "drive_in": "no",
          "microbrewery": "no",
          "name": "Thai Delight",
          "opening_hours": "Th-Tu 10:00-15:00,16:30-20:30",
          "phone": "+1-510-549-0611",
          "website": "https://www.onlinethaidelightberkeley.com"
        }
      }
    },
    {
      "id": "314115583",
      "name": "Agrodolce",
      "lat": 37.8760111,
      "lng": -122.2690487,
      "category": "restaurant",
      "external_url": "https://www.agrodolceberkeley.com/",
      "description": null,
      "open_status": "unknown",
      "confidence": "low",
      "raw": {
        "type": "node",
        "id": 314115583,
        "lat": 37.8760111,
        "lon": -122.2690487,
        "tags": {
          "addr:city": "Berkeley",
          "addr:country": "US",
          "addr:housenumber": "1730",
          "addr:postcode": "94709",
          "addr:state": "CA",
          "addr:street": "Shattuck Avenue",
          "amenity": "restaurant",
          "cuisine": "italian",
          "diet:vegetarian": "yes",
          "name": "Agrodolce",
          "opening_hours": "Tu-Su 17:00-21:00",
          "outdoor_seating": "yes",
          "phone": "+1 510-848-8748",
          "website": "https://www.agrodolceberkeley.com/"
        }
      }
    },
    {
      "id": "314115617",
      "name": "Party Sushi",
      "lat": 37.8752578,
      "lng": -122.2689411,
      "category": "restaurant",
      "external_url": "https://partysushisf.com/",
      "description": null,
      "open_status": "unknown",
      "confidence": "low",
      "raw": {
        "type": "node",
        "id": 314115617,
        "lat": 37.8752578,
        "lon": -122.2689411,
        "tags": {
          "addr:country": "US",
          "addr:housenumber": "1776",
          "addr:state": "CA",
          "addr:street": "Shattuck Avenue",
          "amenity": "restaurant",
          "cuisine": "sushi",
          "name": "Party Sushi",
          "phone": "+1-510-841-1776",
          "website": "https://partysushisf.com/"
        }
      }
    },
    {
      "id": "314115623",
      "name": "Via del Corso",
      "lat": 37.8750513,
      "lng": -122.2689164,
      "category": "restaurant",
      "external_url": "https://www.viadelcorso.net/",
      "description": null,
      "open_status": "unknown",
      "confidence": "low",
      "raw": {
        "type": "node",
        "id": 314115623,
        "lat": 37.8750513,
        "lon": -122.2689164,
        "tags": {
          "addr:country": "US",
          "addr:housenumber": "1788",
          "addr:state": "CA",
          "addr:street": "Shattuck Avenue",
          "amenity": "restaurant",
          "cuisine": "italian",
          "name": "Via del Corso",
          "old_name": "Corso",
          "outdoor_seating": "parklet",
          "website": "https://www.viadelcorso.net/"
        }
      }
    },
    {
      "id": "314115626",
      "name": "Cha Thai Tea",
      "lat": 37.87491,
      "lng": -122.2689,
      "category": "cafe",
      "external_url": null,
      "description": null,
      "open_status": "unknown",
      "confidence": "low",
      "raw": {
        "type": "node",
        "id": 314115626,
        "lat": 37.87491,
        "lon": -122.2689,
        "tags": {
          "addr:city": "Berkeley",
          "addr:country": "US",
          "addr:housenumber": "1796",
          "addr:postcode": "94709-1750",
          "addr:state": "CA",
          "addr:street": "Shattuck Avenue",
          "amenity": "cafe",
          "check_date": "2024-05-03",
          "cuisine": "bubble_tea",
          "name": "Cha Thai Tea",
          "phone": "+1-510-225-9781"
        }
      }
    },
    {
      "id": "314115665",
      "name": "U : Dessert Story",
      "lat": 37.874071,
      "lng": -122.268376,
      "category": "cafe",
      "external_url": "https://udessertstory.com/",
      "description": null,
      "open_status": "unknown",
      "confidence": "low",
      "raw": {
        "type": "node",
        "id": 314115665,
        "lat": 37.874071,
        "lon": -122.268376,
        "tags": {
          "addr:city": "Berkeley",
          "addr:country": "US",
          "addr:housenumber": "1849",
          "addr:postcode": "94709",
          "addr:state": "CA",
          "addr:street": "Shattuck Avenue",
          "amenity": "cafe",
          "check_date": "2023-03-18",
          "cuisine": "dessert;coffee;tea",
          "diet:vegetarian": "yes",
          "name": "U : Dessert Story",
          "opening_hours:covid19": "Mo-Su 13:00-22:00",
          "outdoor_seating": "yes",
          "smoking": "no",
          "website": "https://udessertstory.com/",
          "wheelchair": "yes"
        }
      }
    },
    {
      "id": "314115682",
      "name": "Berkeley Espresso",
      "lat": 37.873712,
      "lng": -122.268772,
      "category": "cafe",
      "external_url": "https://www.berkeleyespresso.com/",
      "description": null,
      "open_status": "unknown",
      "confidence": "low",
      "raw": {
        "type": "node",
        "id": 314115682,
        "lat": 37.873712,
        "lon": -122.268772,
        "tags": {
          "addr:city": "Berkeley",
          "addr:country": "US",
          "addr:housenumber": "1900",
          "addr:postcode": "94704",
          "addr:state": "CA",
          "addr:street": "Shattuck Avenue",
          "amenity": "cafe",
          "check_date": "2023-05-20",
          "cuisine": "coffee_shop",
          "diet:vegetarian": "yes",
          "internet_access": "wlan",
          "internet_access:fee": "no",
          "level": "0",
          "name": "Berkeley Espresso",
          "opening_hours": "Mo-Su 06:00-21:00",
          "outdoor_seating": "sidewalk",
          "payment:credit_cards": "yes",
          "phone": "+1 510 848 9576",
          "smoking": "no",
          "takeaway": "yes",
          "website": "https://www.berkeleyespresso.com/",
          "wheelchair": "yes"
        }
      }
    },
    {
      "id": "314115684",
      "name": "The Noodle",
      "lat": 37.873196,
      "lng": -122.268714,
      "category": "restaurant",
      "external_url": "https://thenoodlebay.com/",
      "description": null,
      "open_status": "unknown",
      "confidence": "low",
      "raw": {
        "type": "node",
        "id": 314115684,
        "lat": 37.873196,
        "lon": -122.268714,
        "tags": {
          "addr:city": "Berkeley",
          "addr:country": "US",
          "addr:housenumber": "1936",
          "addr:state": "CA",
          "addr:street": "Shattuck Avenue",
          "amenity": "restaurant",
          "contact:instagram": "thenoodlebay",
          "cuisine": "thai",
          "diet:vegetarian": "yes",
          "level": "0",
          "name": "The Noodle",
          "opening_hours": "Mo off; Tu-Su 12:00-15:00, 17:00-20:00",
          "website": "https://thenoodlebay.com/"
        }
      }
    },
    {
      "id": "314115688",
      "name": "Gusto",
      "lat": 37.872546,
      "lng": -122.2686471,
      "category": "restaurant",
      "external_url": "https://www.instagram.com/gusto_2026/",
      "description": null,
      "open_status": "unknown",
      "confidence": "low",
      "raw": {
        "type": "node",
        "id": 314115688,
        "lat": 37.872546,
        "lon": -122.2686471,
        "tags": {
          "addr:city": "Berkeley",
          "addr:country": "US",
          "addr:housenumber": "1986",
          "addr:postcode": "94704",
          "addr:state": "CA",
          "addr:street": "Shattuck Avenue",
          "amenity": "restaurant",
          "check_date": "2026-01-29",
          "cuisine": "algerian",
          "drive_in": "no",
          "level": "0",
          "name": "Gusto",
          "old_name": "Turkish Kitchen",
          "outdoor_seating": "no",
          "smoking": "no",
          "website": "https://www.instagram.com/gusto_2026/"
        }
      }
    },
    {
      "id": "314115730",
      "name": "McDonald's",
      "lat": 37.8723029,
      "lng": -122.268629,
      "category": "fast_food",
      "external_url": "https://www.mcdonalds.com/us/en-us/location/4372.html",
      "description": null,
      "open_status": "unknown",
      "confidence": "low",
      "raw": {
        "type": "node",
        "id": 314115730,
        "lat": 37.8723029,
        "lon": -122.268629,
        "tags": {
          "addr:city": "Berkeley",
          "addr:country": "US",
          "addr:housenumber": "1998",
          "addr:postcode": "94704",
          "addr:state": "CA",
          "addr:street": "Shattuck Avenue",
          "amenity": "fast_food",
          "brand": "McDonald's",
          "brand:wikidata": "Q38076",
          "check_date": "2025-03-19",
          "cuisine": "burger",
          "diet:vegetarian": "yes",
          "drive_in": "no",
          "drive_through": "no",
          "indoor_seating": "yes",
          "internet_access": "wlan",
          "internet_access:fee": "no",
          "name": "McDonald's",
          "opening_hours": "Mo-Su 06:00-23:55",
          "outdoor_seating": "no",
          "phone": "+1 510-843-1500",
          "takeaway": "yes",
          "website": "https://www.mcdonalds.com/us/en-us/location/4372.html",
          "wheelchair": "yes"
        }
      }
    },
    {
      "id": "314117745",
      "name": "Grégoire",
      "lat": 37.8785742,
      "lng": -122.268587,
      "category": "restaurant",
      "external_url": "https://www.gregoirerestaurant.com/",
      "description": null,
      "open_status": "unknown",
      "confidence": "low",
      "raw": {
        "type": "node",
        "id": 314117745,
        "lat": 37.8785742,
        "lon": -122.268587,
        "tags": {
          "addr:city": "Berkeley",
          "addr:country": "US",
          "addr:housenumber": "2109",
          "addr:state": "CA",
          "addr:street": "Cedar Street",
          "amenity": "restaurant",
          "contact:instagram": "gregoirerestaurant",
          "cuisine": "french",
          "drive_in": "no",
          "microbrewery": "no",
          "name": "Grégoire",
          "opening_hours": "07:00-21:00",
          "phone": "+1 510 8831893",
          "smoking": "no",
          "website": "https://www.gregoirerestaurant.com/"
        }
      }
    },
    {
      "id": "314117759",
      "name": "JotMahal",
      "lat": 37.8786643,
      "lng": -122.268927,
      "category": "restaurant",
      "external_url": "https://www.jotmahalberkeley.com/",
      "description": null,
      "open_status": "unknown",
      "confidence": "low",
      "raw": {
        "type": "node",
        "id": 314117759,
        "lat": 37.8786643,
        "lon": -122.268927,
        "tags": {
          "addr:city": "Berkeley",
          "addr:country": "US",
          "addr:housenumber": "1543",
          "addr:postcode": "94709",
          "addr:state": "CA",
          "addr:street": "Shattuck Avenue",
          "alt_name": "JotMahal Palace of Indian Cuisine",
          "amenity": "restaurant",
          "check_date": "2023-03-18",
          "cuisine": "indian",
          "name": "JotMahal",
          "opening_hours": "Mo-Su 11:00-15:00,17:00-21:00",
          "phone": "+1-510-848-9664",
          "takeaway": "yes",
          "website": "https://www.jotmahalberkeley.com/"
        }
      }
    },
    {
      "id": "317106193",
      "name": "Peet's Coffee",
      "lat": 37.8802403,
      "lng": -122.268318,
      "category": "cafe",
      "external_url": null,
      "description": null,
      "open_status": "unknown",
      "confidence": "low",
      "raw": {
        "type": "node",
        "id": 317106193,
        "lat": 37.8802403,
        "lon": -122.268318,
        "tags": {
          "addr:city": "Berkeley",
          "addr:country": "US",
          "addr:housenumber": "2124",
          "addr:state": "CA",
          "addr:street": "Vine Street",
          "amenity": "cafe",
          "brand": "Peet's Coffee",
          "brand:wikidata": "Q1094101",
          "check_date": "2024-10-24",
          "cuisine": "coffee_shop",
          "indoor_seating": "yes",
          "name": "Peet's Coffee",
          "note": "the original Peet's store",
          "old_name": "Peet's Coffee & Tea;Peet's Coffee Tea & Spices",
          "opening_hours": "Mo-Fr 05:30-20:00; Sa-Su 06:00-20:00",
          "outdoor_seating": "sidewalk",
          "phone": "+1 510-841-0564",
          "shop": "coffee",
          "takeaway": "yes",
          "wheelchair": "yes"
        }
      }
    },
    {
      "id": "318886206",
      "name": "La Burrita",
      "lat": 37.8755667,
      "lng": -122.2606291,
      "category": "restaurant",
      "external_url": null,
      "description": null,
      "open_status": "unknown",
      "confidence": "low",
      "raw": {
        "type": "node",
        "id": 318886206,
        "lat": 37.8755667,
        "lon": -122.2606291,
        "tags": {
          "addr:city": "Berkeley",
          "addr:housenumber": "1832",
          "addr:postcode": "94709",
          "addr:state": "CA",
          "addr:street": "Euclid Avenue",
          "amenity": "restaurant",
          "check_date": "2025-03-13",
          "cuisine": "mexican",
          "name": "La Burrita",
          "wheelchair": "yes"
        }
      }
    },
    {
      "id": "318886209",
      "name": "Momo Masala",
      "lat": 37.8753367,
      "lng": -122.2597989,
      "category": "restaurant",
      "external_url": null,
      "description": null,
      "open_status": "unknown",
      "confidence": "low",
      "raw": {
        "type": "node",
        "id": 318886209,
        "lat": 37.8753367,
        "lon": -122.2597989,
        "tags": {
          "amenity": "restaurant",
          "cuisine": "indian",
          "name": "Momo Masala",
          "takeaway": "yes"
        }
      }
    },
    {
      "id": "318886212",
      "name": "Camille",
      "lat": 37.8754617,
      "lng": -122.2597197,
      "category": "restaurant",
      "external_url": "https://www.camilleberkeley.com/",
      "description": null,
      "open_status": "unknown",
      "confidence": "low",
      "raw": {
        "type": "node",
        "id": 318886212,
        "lat": 37.8754617,
        "lon": -122.2597197,
        "tags": {
          "addr:housenumber": "2507",
          "addr:street": "Hearst Avenue",
          "addr:unit": "C",
          "amenity": "restaurant",
          "cuisine": "vietnamese",
          "name": "Camille",
          "website": "https://www.camilleberkeley.com/"
        }
      }
    },
    {
      "id": "318886214",
      "name": "Aki's",
      "lat": 37.8754473,
      "lng": -122.2598384,
      "category": "restaurant",
      "external_url": null,
      "description": null,
      "open_status": "unknown",
      "confidence": "low",
      "raw": {
        "type": "node",
        "id": 318886214,
        "lat": 37.8754473,
        "lon": -122.2598384,
        "tags": {
          "amenity": "restaurant",
          "cuisine": "japanese",
          "name": "Aki's",
          "takeaway": "yes"
        }
      }
    },
    {
      "id": "318886222",
      "name": "Bongo Burger",
      "lat": 37.8756116,
      "lng": -122.2601289,
      "category": "restaurant",
      "external_url": null,
      "description": null,
      "open_status": "unknown",
      "confidence": "low",
      "raw": {
        "type": "node",
        "id": 318886222,
        "lat": 37.8756116,
        "lon": -122.2601289,
        "tags": {
          "addr:city": "Berkeley",
          "addr:housenumber": "1839",
          "addr:street": "Euclid Avenue",
          "amenity": "restaurant",
          "cuisine": "american;mediterranean",
          "name": "Bongo Burger"
        }
      }
    },
    {
      "id": "318886226",
      "name": "Banh Mi Bite",
      "lat": 37.8758027,
      "lng": -122.2604332,
      "category": "fast_food",
      "external_url": "https://places.singleplatform.com/banh-mi--roll-factory/menu",
      "description": null,
      "open_status": "unknown",
      "confidence": "low",
      "raw": {
        "type": "node",
        "id": 318886226,
        "lat": 37.8758027,
        "lon": -122.2604332,
        "tags": {
          "addr:city": "Berkeley",
          "addr:housenumber": "1814",
          "addr:postcode": "94709",
          "addr:state": "CA",
          "addr:street": "Euclid Avenue",
          "amenity": "fast_food",
          "cuisine": "vietnamese;sandwich",
          "name": "Banh Mi Bite",
          "opening_hours": "Mo-Su 10:00-17:00",
          "website": "https://places.singleplatform.com/banh-mi--roll-factory/menu"
        }
      }
    },
    {
      "id": "343317732",
      "name": "Nation's Giant Hamburgers",
      "lat": 37.9018413,
      "lng": -122.3036058,
      "category": "restaurant",
      "external_url": null,
      "description": null,
      "open_status": "unknown",
      "confidence": "low",
      "raw": {
        "type": "node",
        "id": 343317732,
        "lat": 37.9018413,
        "lon": -122.3036058,
        "tags": {
          "amenity": "restaurant",
          "cuisine": "american",
          "delivery": "no",
          "name": "Nation's Giant Hamburgers",
          "opening_hours": "24/7",
          "phone": "+1 510 528 8888",
          "takeaway": "yes",
          "wheelchair": "yes"
        }
      }
    },
    {
      "id": "343317738",
      "name": "Burger King",
      "lat": 37.9023271,
      "lng": -122.3040885,
      "category": "fast_food",
      "external_url": "https://www.bk.com/store-locator/store/restaurant_1082",
      "description": null,
      "open_status": "unknown",
      "confidence": "low",
      "raw": {
        "type": "node",
        "id": 343317738,
        "lat": 37.9023271,
        "lon": -122.3040885,
        "tags": {
          "addr:city": "El Cerrito",
          "addr:housenumber": "6021",
          "addr:postcode": "94530-3559",
          "addr:state": "CA",
          "addr:street": "Central Avenue",
          "amenity": "fast_food",
          "brand": "Burger King",
          "brand:wikidata": "Q177054",
          "cuisine": "burger",
          "delivery": "no",
          "drive_through": "yes",
          "internet_access": "wlan",
          "name": "Burger King",
          "opening_hours": "Mo-Sa 06:00-24:00; Sa 07:00-24:00",
          "phone": "+1 510-525-6377",
          "ref": "2055",
          "takeaway": "yes",
          "website": "https://www.bk.com/store-locator/store/restaurant_1082",
          "wheelchair": "yes"
        }
      }
    },
    {
      "id": "343610918",
      "name": "Jerusalem Organic Kitchen",
      "lat": 37.8916276,
      "lng": -122.2773197,
      "category": "restaurant",
      "external_url": "http://places.singleplatform.com/jerusalem-organic-kitchen/menu?ref=openstreetmap",
      "description": null,
      "open_status": "unknown",
      "confidence": "low",
      "raw": {
        "type": "node",
        "id": 343610918,
        "lat": 37.8916276,
        "lon": -122.2773197,
        "tags": {
          "addr:city": "Berkeley",
          "addr:country": "US",
          "addr:housenumber": "1897",
          "addr:state": "CA",
          "addr:street": "Solano Avenue",
          "amenity": "restaurant",
          "cuisine": "mediterranean;burger",
          "name": "Jerusalem Organic Kitchen",
          "phone": "+1-510-525-7888",
          "website": "http://places.singleplatform.com/jerusalem-organic-kitchen/menu?ref=openstreetmap"
        }
      }
    },
    {
      "id": "343610919",
      "name": "Tha Siam Thai Bistro",
      "lat": 37.8913259,
      "lng": -122.277442,
      "category": "restaurant",
      "external_url": "https://thasiam.net",
      "description": null,
      "open_status": "unknown",
      "confidence": "low",
      "raw": {
        "type": "node",
        "id": 343610919,
        "lat": 37.8913259,
        "lon": -122.277442,
        "tags": {
          "addr:city": "Berkeley",
          "addr:country": "US",
          "addr:housenumber": "1892",
          "addr:state": "CA",
          "addr:street": "Solano Avenue",
          "amenity": "restaurant",
          "cuisine": "thai",
          "diet:vegetarian": "yes",
          "name": "Tha Siam Thai Bistro",
          "old_name": "Bangkok Jam",
          "opening_hours": "Tu-Su 11:30-14:30, 16:30-21:00",
          "phone": "+1 5105253625",
          "website": "https://thasiam.net"
        }
      }
    },
    {
      "id": "343610920",
      "name": "Ajanta",
      "lat": 37.8913208,
      "lng": -122.277534,
      "category": "restaurant",
      "external_url": "https://www.ajantarestaurant.com",
      "description": null,
      "open_status": "unknown",
      "confidence": "low",
      "raw": {
        "type": "node",
        "id": 343610920,
        "lat": 37.8913208,
        "lon": -122.277534,
        "tags": {
          "addr:city": "Berkeley",
          "addr:country": "US",
          "addr:housenumber": "1888",
          "addr:postcode": "94707",
          "addr:state": "CA",
          "addr:street": "Solano Avenue",
          "amenity": "restaurant",
          "cuisine": "indian",
          "diet:vegetarian": "yes",
          "name": "Ajanta",
          "opening_hours": "Tu-Su 12:00-14:30, 17:00-21:00",
          "phone": "+1 510 526-4373",
          "website": "https://www.ajantarestaurant.com"
        }
      }
    },
    {
      "id": "343610922",
      "name": "Bangalore Blues",
      "lat": 37.8916139,
      "lng": -122.2775645,
      "category": "restaurant",
      "external_url": "https://www.instagram.com/pochys_food/",
      "description": null,
      "open_status": "unknown",
      "confidence": "low",
      "raw": {
        "type": "node",
        "id": 343610922,
        "lat": 37.8916139,
        "lon": -122.2775645,
        "tags": {
          "addr:city": "Berkeley",
          "addr:country": "US",
          "addr:housenumber": "1889",
          "addr:state": "CA",
          "addr:street": "Solano Avenue",
          "amenity": "restaurant",
          "name": "Bangalore Blues",
          "website": "https://www.instagram.com/pochys_food/"
        }
      }
    },
    {
      "id": "343610923",
      "name": "Noah's Bagels",
      "lat": 37.8916031,
      "lng": -122.277757,
      "category": "fast_food",
      "external_url": "https://locations.noahs.com/us/ca/berkeley/1883-solano-ave",
      "description": null,
      "open_status": "unknown",
      "confidence": "low",
      "raw": {
        "type": "node",
        "id": 343610923,
        "lat": 37.8916031,
        "lon": -122.277757,
        "tags": {
          "addr:city": "Berkeley",
          "addr:housenumber": "1883",
          "addr:state": "CA",
          "addr:street": "Solano Avenue",
          "amenity": "fast_food",
          "brand": "Noah's Bagels",
          "brand:wikidata": "Q64517373",
          "cuisine": "bagel",
          "diet:vegetarian": "yes",
          "name": "Noah's Bagels",
          "official_name": "Noah's New York Bagels",
          "opening_hours": "Mo-Fr 05:30-14:00; Sa, Su 06:00-14:00",
          "phone": "+1 510-525-4447",
          "shop": "bakery",
          "takeaway": "yes",
          "website": "https://locations.noahs.com/us/ca/berkeley/1883-solano-ave"
        }
      }
    },
    {
      "id": "343610924",
      "name": "Cactus Taqueria",
      "lat": 37.8915993,
      "lng": -122.2778253,
      "category": "restaurant",
      "external_url": "https://www.cactustaqueria.com",
      "description": null,
      "open_status": "unknown",
      "confidence": "low",
      "raw": {
        "type": "node",
        "id": 343610924,
        "lat": 37.8915993,
        "lon": -122.2778253,
        "tags": {
          "addr:city": "Berkeley",
          "addr:country": "US",
          "addr:housenumber": "1881",
          "addr:state": "CA",
          "addr:street": "Solano Avenue",
          "amenity": "restaurant",
          "cuisine": "mexican",
          "diet:vegetarian": "yes",
          "indoor_seating": "yes",
          "name": "Cactus Taqueria",
          "opening_hours": "Mo-Su 11:00-20:00",
          "outdoor_seating": "no",
          "phone": "+1 510 528 1881",
          "website": "https://www.cactustaqueria.com",
          "wheelchair": "yes"
        }
      }
    },
    {
      "id": "343610928",
      "name": "Zachary's Chicago Pizza",
      "lat": 37.8915568,
      "lng": -122.2785848,
      "category": "restaurant",
      "external_url": "https://zacharys.com/locations/berkeley",
      "description": null,
      "open_status": "unknown",
      "confidence": "low",
      "raw": {
        "type": "node",
        "id": 343610928,
        "lat": 37.8915568,
        "lon": -122.2785848,
        "tags": {
          "addr:city": "Berkeley",
          "addr:country": "US",
          "addr:housenumber": "1853",
          "addr:postcode": "94707",
          "addr:state": "CA",
          "addr:street": "Solano Avenue",
          "alt_name": "Zachary's North Berkeley",
          "amenity": "restaurant",
          "branch": "North Berkeley",
          "check_date:opening_hours": "2024-10-29",
          "cocktails": "no",
          "contact:doordash": "https://doordash.com/store/zachary's-chicago-pizza-berkeley-9094",
          "contact:facebook": "PizzaZacharys",
          "contact:instagram": "zacharyspizza",
          "contact:rss": "https://zacharys.com/feed",
          "contact:twitter": "ZacharysPizza",
          "contact:ubereats": "https://ubereats.com/store/zacharys-chicago-pizza-berkeley/X04dr6KvRkKuiY6cyAsMuQ?diningMode=DELIVERY",
          "contact:website": "https://zacharys.com/locations/north-berkeley",
          "contact:yelp": "https://yelp.com/biz/zacharys-chicago-pizza-berkeley",
          "cuisine": "pizza",
          "delivery": "third_party",
          "diet:gluten_free": "yes",
          "diet:vegan": "yes",
          "diet:vegetarian": "yes",
          "drink:beer": "yes",
          "drink:coffee": "yes",
          "drink:tea": "yes",
          "drink:wine": "yes",
          "drive_in": "no",
          "indoor_seating": "yes",
          "microbrewery": "no",
          "name": "Zachary's Chicago Pizza",
          "opening_hours": "Fr-Sa 11:00-21:00; Su-Th 11:00-20:30",
          "opening_hours:url": "https://zacharys.com/locations/berkeley",
          "outdoor_seating": "parklet",
          "phone": "+1-510-525-5950",
          "pizza:style": "chicago;pan",
          "reservation": "no",
          "short_name": "Zachary's",
          "smoking": "no",
          "takeaway": "yes",
          "website": "https://zacharys.com/locations/berkeley",
          "wheelchair": "yes"
        }
      }
    },
    {
      "id": "343610932",
      "name": "Peet's Coffee",
      "lat": 37.8915215,
      "lng": -122.2792168,
      "category": "cafe",
      "external_url": "https://locations.peets.com/ll/US/CA/Berkeley/1825-Solano-Avenue",
      "description": null,
      "open_status": "unknown",
      "confidence": "low",
      "raw": {
        "type": "node",
        "id": 343610932,
        "lat": 37.8915215,
        "lon": -122.2792168,
        "tags": {
          "addr:city": "Berkeley",
          "addr:country": "US",
          "addr:housenumber": "1825",
          "addr:postcode": "94707",
          "addr:state": "CA",
          "addr:street": "Solano Avenue",
          "amenity": "cafe",
          "brand": "Peet's Coffee",
          "brand:wikidata": "Q1094101",
          "cuisine": "coffee_shop",
          "indoor_seating": "yes",
          "internet_access": "wlan",
          "internet_access:fee": "no",
          "name": "Peet's Coffee",
          "note": "coffee shop and retail store",
          "old_name": "Peet's Coffee and Tea",
          "opening_hours": "Mo-Su 05:30-19:00",
          "outdoor_seating": "sidewalk",
          "phone": "+1-510-526-9607",
          "shop": "coffee",
          "takeaway": "yes",
          "website": "https://locations.peets.com/ll/US/CA/Berkeley/1825-Solano-Avenue"
        }
      }
    },
    {
      "id": "343610935",
      "name": "Kirin",
      "lat": 37.8914344,
      "lng": -122.2807749,
      "category": "restaurant",
      "external_url": "https://www.thekirin.com/",
      "description": null,
      "open_status": "unknown",
      "confidence": "low",
      "raw": {
        "type": "node",
        "id": 343610935,
        "lat": 37.8914344,
        "lon": -122.2807749,
        "tags": {
          "amenity": "restaurant",
          "cuisine": "chinese",
          "indoor_seating": "yes",
          "menu:url": "http://places.singleplatform.com/kirin-28/menu",
          "name": "Kirin",
          "outdoor_seating": "no",
          "phone": "+1-510-524-1677",
          "website": "https://www.thekirin.com/"
        }
      }
    },
    {
      "id": "343610938",
      "name": "Signal Coffee",
      "lat": 37.891344,
      "lng": -122.2823969,
      "category": "cafe",
      "external_url": "https://signalcoffee.com/",
      "description": null,
      "open_status": "unknown",
      "confidence": "low",
      "raw": {
        "type": "node",
        "id": 343610938,
        "lat": 37.891344,
        "lon": -122.2823969,
        "tags": {
          "addr:city": "Berkeley",
          "addr:country": "US",
          "addr:housenumber": "1707",
          "addr:state": "CA",
          "addr:street": "Solano Avenue",
          "amenity": "cafe",
          "check_date": "2025-07-06",
          "cuisine": "coffee_shop",
          "drive_in": "no",
          "indoor_seating": "yes",
          "name": "Signal Coffee",
          "old_name": "Brazilian Breads",
          "opening_hours": "Mo-Su 07:00-16:00",
          "outdoor_seating": "sidewalk",
          "payment:cash": "yes",
          "payment:credit_cards": "yes",
          "smoking": "no",
          "takeaway": "yes",
          "website": "https://signalcoffee.com/",
          "wheelchair": "yes"
        }
      }
    },
    {
      "id": "343610939",
      "name": "Sichuan Style Restaurant",
      "lat": 37.8913348,
      "lng": -122.2825604,
      "category": "restaurant",
      "external_url": "https://www.sichuanstylerestaurant.com/",
      "description": null,
      "open_status": "unknown",
      "confidence": "low",
      "raw": {
        "type": "node",
        "id": 343610939,
        "lat": 37.8913348,
        "lon": -122.2825604,
        "tags": {
          "addr:city": "Berkeley",
          "addr:country": "US",
          "addr:housenumber": "1699",
          "addr:state": "CA",
          "addr:street": "Solano Avenue",
          "amenity": "restaurant",
          "cuisine": "chinese",
          "indoor_seating": "yes",
          "name": "Sichuan Style Restaurant",
          "old_name": "King Tsin",
          "opening_hours": "Mo-Su 11:30-21:30",
          "outdoor_seating": "no",
          "phone": "+1-510-525-9890",
          "website": "https://www.sichuanstylerestaurant.com/"
        }
      }
    },
    {
      "id": "343610940",
      "name": "AKEMI",
      "lat": 37.8913239,
      "lng": -122.2827535,
      "category": "restaurant",
      "external_url": "http://www.akemiberkeley.com",
      "description": null,
      "open_status": "unknown",
      "confidence": "low",
      "raw": {
        "type": "node",
        "id": 343610940,
        "lat": 37.8913239,
        "lon": -122.2827535,
        "tags": {
          "addr:country": "US",
          "addr:housenumber": "1695",
          "addr:postcode": "94707",
          "addr:state": "CA",
          "addr:street": "Solano Avenue",
          "amenity": "restaurant",
          "contact:instagram": "https://www.instagram.com/akemiberkeley/",
          "cuisine": "japanese",
          "email": "picocho@yahoo.com",
          "indoor_seating": "yes",
          "internet_access": "wlan",
          "name": "AKEMI",
          "opening_hours": "Mo-Fr 11:30-16:00, 17:00-21:30; Sa-Su 09:00-18:00",
          "operator": "Akemi",
          "outdoor_seating": "yes",
          "phone": "+1-510-524-1286",
          "website": "http://www.akemiberkeley.com",
          "wheelchair": "yes"
        }
      }
    },
    {
      "id": "343610942",
      "name": "Himalayan Tandoori and Curry House",
      "lat": 37.8912839,
      "lng": -122.2834654,
      "category": "restaurant",
      "external_url": "https://www.berkeleyhimalayan.com/",
      "description": null,
      "open_status": "unknown",
      "confidence": "low",
      "raw": {
        "type": "node",
        "id": 343610942,
        "lat": 37.8912839,
        "lon": -122.2834654,
        "tags": {
          "addr:street": "Solano Avenue",
          "amenity": "restaurant",
          "cuisine": "himalayan;indian",
          "indoor_seating": "yes",
          "name": "Himalayan Tandoori and Curry House",
          "opening_hours": "Mo-Su 11:00-15:00, 17:00-21:30",
          "outdoor_seating": "no",
          "phone": "+1-510-526-4915",
          "website": "https://www.berkeleyhimalayan.com/",
          "wheelchair": "yes"
        }
      }
    },
    {
      "id": "343610943",
      "name": "Organic Greens",
      "lat": 37.8912462,
      "lng": -122.2840802,
      "category": "restaurant",
      "external_url": "http://www.organicgreensalad.com/",
      "description": null,
      "open_status": "unknown",
      "confidence": "low",
      "raw": {
        "type": "node",
        "id": 343610943,
        "lat": 37.8912462,
        "lon": -122.2840802,
        "tags": {
          "addr:city": "Berkeley",
          "addr:country": "US",
          "addr:housenumber": "1615",
          "addr:postcode": "94707",
          "addr:state": "CA",
          "addr:street": "Solano Avenue",
          "amenity": "restaurant",
          "cuisine": "salad;sandwich;breakfast",
          "indoor_seating": "yes",
          "name": "Organic Greens",
          "opening_hours": "Mo-Su 10:00-17:30",
          "outdoor_seating": "yes",
          "phone": "+1-510-647-8390",
          "website": "http://www.organicgreensalad.com/",
          "wheelchair": "yes"
        }
      }
    },
    {
      "id": "343610946",
      "name": "Kyoto",
      "lat": 37.8912226,
      "lng": -122.2845597,
      "category": "restaurant",
      "external_url": "http://www.kyotosushiberkeley.com/",
      "description": null,
      "open_status": "unknown",
      "confidence": "low",
      "raw": {
        "type": "node",
        "id": 343610946,
        "lat": 37.8912226,
        "lon": -122.2845597,
        "tags": {
          "addr:city": "Berkeley",
          "addr:country": "US",
          "addr:housenumber": "1599",
          "addr:state": "CA",
          "addr:street": "Solano Avenue",
          "amenity": "restaurant",
          "cuisine": "sushi",
          "name": "Kyoto",
          "opening_hours": "Mo-Fr 11:00-19:30; Sa 11:00-18:30; Su 11:00-16:00",
          "phone": "+1-510-527-3288",
          "takeaway": "only",
          "website": "http://www.kyotosushiberkeley.com/",
          "wheelchair": "yes"
        }
      }
    },
    {
      "id": "343610947",
      "name": "Peace Natural Vegan Food",
      "lat": 37.8912136,
      "lng": -122.284737,
      "category": "restaurant",
      "external_url": null,
      "description": null,
      "open_status": "unknown",
      "confidence": "low",
      "raw": {
        "type": "node",
        "id": 343610947,
        "lat": 37.8912136,
        "lon": -122.284737,
        "tags": {
          "addr:city": "Berkeley",
          "addr:country": "US",
          "addr:housenumber": "1593",
          "addr:state": "CA",
          "addr:street": "Solano Avenue",
          "amenity": "restaurant",
          "diet:vegan": "only",
          "indoor_seating": "yes",
          "name": "Peace Natural Vegan Food",
          "old_name": "Nomad",
          "outdoor_seating": "no"
        }
      }
    },
    {
      "id": "343610948",
      "name": "Barney's",
      "lat": 37.8912088,
      "lng": -122.284812,
      "category": "restaurant",
      "external_url": "https://www.barneyshamburgers.com/barneys-berkeley-solano",
      "description": null,
      "open_status": "unknown",
      "confidence": "low",
      "raw": {
        "type": "node",
        "id": 343610948,
        "lat": 37.8912088,
        "lon": -122.284812,
        "tags": {
          "addr:city": "Berkeley",
          "addr:country": "US",
          "addr:housenumber": "1591",
          "addr:postcode": "94707",
          "addr:state": "CA",
          "addr:street": "Solano Avenue",
          "amenity": "restaurant",
          "cuisine": "burger",
          "indoor_seating": "yes",
          "name": "Barney's",
          "opening_hours": "Mo-Su 11:00-21:00",
          "outdoor_seating": "parklet",
          "phone": "+1-510-526-8185",
          "website": "https://www.barneyshamburgers.com/barneys-berkeley-solano",
          "wheelchair": "yes"
        }
      }
    },
    {
      "id": "343610951",
      "name": "Talavera Mexican Grill",
      "lat": 37.8911811,
      "lng": -122.285408,
      "category": "restaurant",
      "external_url": "https://www.doordash.com/store/taqueria-talavera-berkeley-37527",
      "description": null,
      "open_status": "unknown",
      "confidence": "low",
      "raw": {
        "type": "node",
        "id": 343610951,
        "lat": 37.8911811,
        "lon": -122.285408,
        "tags": {
          "addr:street": "Solano Avenue",
          "alt_name": "Taqueria Talavera",
          "amenity": "restaurant",
          "cuisine": "mexican",
          "indoor_seating": "yes",
          "name": "Talavera Mexican Grill",
          "outdoor_seating": "sidewalk",
          "phone": "+1-510-558-8565",
          "takeaway": "yes",
          "website": "https://www.doordash.com/store/taqueria-talavera-berkeley-37527"
        }
      }
    },
    {
      "id": "343610964",
      "name": "Korean Superette",
      "lat": 37.8911257,
      "lng": -122.286315,
      "category": "restaurant",
      "external_url": "https://korean-superette.com",
      "description": "Restaurant and Korean convenience store. The kitchen closes at 8pm.",
      "open_status": "unknown",
      "confidence": "low",
      "raw": {
        "type": "node",
        "id": 343610964,
        "lat": 37.8911257,
        "lon": -122.286315,
        "tags": {
          "addr:city": "Berkeley",
          "addr:housenumber": "1539",
          "addr:state": "CA",
          "addr:street": "Solano Avenue",
          "amenity": "restaurant",
          "cuisine": "korean",
          "description": "Restaurant and Korean convenience store. The kitchen closes at 8pm.",
          "indoor_seating": "yes",
          "name": "Korean Superette",
          "opening_hours": "Su-Th 11:00-21:00; Fr, Sa 11:00-22:00",
          "outdoor_seating": "yes",
          "phone": "+1-510-529-4009",
          "shop": "deli",
          "website": "https://korean-superette.com",
          "wheelchair": "yes"
        }
      }
    },
    {
      "id": "343610967",
      "name": "Solano Junction",
      "lat": 37.8910515,
      "lng": -122.2876033,
      "category": "restaurant",
      "external_url": "https://solanojunction.com/",
      "description": null,
      "open_status": "unknown",
      "confidence": "low",
      "raw": {
        "type": "node",
        "id": 343610967,
        "lat": 37.8910515,
        "lon": -122.2876033,
        "tags": {
          "amenity": "restaurant",
          "cuisine": "american",
          "indoor_seating": "yes",
          "name": "Solano Junction",
          "old_name": "The Sunnyside Cafe",
          "opening_hours": "Mo-Su 08:30-15:00",
          "outdoor_seating": "yes",
          "phone": "+1-510-527-5383",
          "website": "https://solanojunction.com/",
          "wheelchair": "yes"
        }
      }
    },
    {
      "id": "343610968",
      "name": "House of Curries",
      "lat": 37.891048,
      "lng": -122.2876843,
      "category": "restaurant",
      "external_url": "https://houseofcurries.com",
      "description": null,
      "open_status": "unknown",
      "confidence": "low",
      "raw": {
        "type": "node",
        "id": 343610968,
        "lat": 37.891048,
        "lon": -122.2876843,
        "tags": {
          "addr:city": "Albany",
          "addr:country": "US",
          "addr:housenumber": "1497",
          "addr:state": "CA",
          "addr:street": "Solano Avenue",
          "amenity": "restaurant",
          "cuisine": "indian",
          "indoor_seating": "yes",
          "name": "House of Curries",
          "opening_hours": "Mo-Su 11:00-21:00",
          "outdoor_seating": "yes",
          "phone": "+1-510-559-8477",
          "website": "https://houseofcurries.com",
          "wheelchair": "yes"
        }
      }
    },
    {
      "id": "343610969",
      "name": "Duo Grill House",
      "lat": 37.8910362,
      "lng": -122.287904,
      "category": "restaurant",
      "external_url": "https://www.duogrillhouse.com/",
      "description": null,
      "open_status": "unknown",
      "confidence": "low",
      "raw": {
        "type": "node",
        "id": 343610969,
        "lat": 37.8910362,
        "lon": -122.287904,
        "tags": {
          "addr:city": "Albany",
          "addr:country": "US",
          "addr:housenumber": "1491",
          "addr:state": "CA",
          "addr:street": "Solano Avenue",
          "amenity": "restaurant",
          "cuisine": "american;mexican;italian;barbecue;burger;sandwich",
          "name": "Duo Grill House",
          "opening_hours": "Mo, Tu, Sa, Su 08:00-15:00; We-Fr 08:00-21:00",
          "phone": "+1-510-524-3860",
          "website": "https://www.duogrillhouse.com/"
        }
      }
    },
    {
      "id": "343610970",
      "name": "Renee's Place",
      "lat": 37.8910081,
      "lng": -122.288403,
      "category": "restaurant",
      "external_url": "https://www.reneesplacerestaurant.com",
      "description": null,
      "open_status": "unknown",
      "confidence": "low",
      "raw": {
        "type": "node",
        "id": 343610970,
        "lat": 37.8910081,
        "lon": -122.288403,
        "tags": {
          "addr:city": "Albany",
          "addr:country": "US",
          "addr:housenumber": "1477",
          "addr:postcode": "94706",
          "addr:state": "CA",
          "addr:street": "Solano Avenue",
          "amenity": "restaurant",
          "cuisine": "chinese",
          "diet:vegetarian": "yes",
          "name": "Renee's Place",
          "opening_hours": "Mo-Su 17:00-21:00, 11:30-15:00",
          "phone": "+1 510-525-2330",
          "toilets": "yes",
          "website": "https://www.reneesplacerestaurant.com"
        }
      }
    },
    {
      "id": "343610975",
      "name": "Bowl'd",
      "lat": 37.8910126,
      "lng": -122.288305,
      "category": "restaurant",
      "external_url": "https://www.bowldbbq.com/albany",
      "description": null,
      "open_status": "unknown",
      "confidence": "low",
      "raw": {
        "type": "node",
        "id": 343610975,
        "lat": 37.8910126,
        "lon": -122.288305,
        "tags": {
          "addr:city": "Albany",
          "addr:country": "US",
          "addr:housenumber": "1479",
          "addr:state": "CA",
          "addr:street": "Solano Avenue",
          "amenity": "restaurant",
          "cuisine": "korean",
          "name": "Bowl'd",
          "phone": "+1-510-526-6223",
          "website": "https://www.bowldbbq.com/albany"
        }
      }
    },
    {
      "id": "343610977",
      "name": "Gordo Taqueria",
      "lat": 37.8909468,
      "lng": -122.2894918,
      "category": "fast_food",
      "external_url": "https://shop.gordotaqueria.co/gordo-solano-ave/menu",
      "description": null,
      "open_status": "unknown",
      "confidence": "low",
      "raw": {
        "type": "node",
        "id": 343610977,
        "lat": 37.8909468,
        "lon": -122.2894918,
        "tags": {
          "addr:city": "Albany",
          "addr:country": "US",
          "addr:housenumber": "1423",
          "addr:state": "CA",
          "addr:street": "Solano Avenue",
          "amenity": "fast_food",
          "cuisine": "mexican",
          "drive_through": "no",
          "indoor_seating": "yes",
          "name": "Gordo Taqueria",
          "opening_hours": "Mo-Su 10:00-21:30",
          "outdoor_seating": "no",
          "phone": "+1-510-528-8226",
          "takeaway": "yes",
          "website": "https://shop.gordotaqueria.co/gordo-solano-ave/menu",
          "wheelchair": "yes"
        }
      }
    },
    {
      "id": "343610978",
      "name": "Domino's",
      "lat": 37.8909437,
      "lng": -122.2895478,
      "category": "fast_food",
      "external_url": "https://pizza.dominos.com/california/albany/1421-solano-avenue",
      "description": null,
      "open_status": "unknown",
      "confidence": "low",
      "raw": {
        "type": "node",
        "id": 343610978,
        "lat": 37.8909437,
        "lon": -122.2895478,
        "tags": {
          "addr:city": "Berkeley",
          "addr:country": "US",
          "addr:housenumber": "1421",
          "addr:postcode": "94706",
          "addr:state": "CA",
          "addr:street": "Solano Avenue",
          "amenity": "fast_food",
          "brand": "Domino's",
          "brand:wikidata": "Q839466",
          "cuisine": "pizza",
          "delivery": "yes",
          "drive_through": "no",
          "name": "Domino's",
          "old_name": "Domino's Pizza",
          "opening_hours": "Su-Th 10:30-00:00; Fr-Sa 10:30-01:00",
          "phone": "+1 510-526-9346",
          "ref": "7902",
          "takeaway": "only",
          "website": "https://pizza.dominos.com/california/albany/1421-solano-avenue",
          "wheelchair": "limited"
        }
      }
    },
    {
      "id": "343610987",
      "name": "Delhi Diner",
      "lat": 37.8908799,
      "lng": -122.2906862,
      "category": "restaurant",
      "external_url": "https://delhidiner.net/",
      "description": null,
      "open_status": "unknown",
      "confidence": "low",
      "raw": {
        "type": "node",
        "id": 343610987,
        "lat": 37.8908799,
        "lon": -122.2906862,
        "tags": {
          "addr:city": "Albany",
          "addr:country": "US",
          "addr:housenumber": "1373",
          "addr:state": "CA",
          "addr:street": "Solano Avenue",
          "amenity": "restaurant",
          "cuisine": "indian",
          "name": "Delhi Diner",
          "opening_hours": "Mo-Su 11:30-21:00",
          "phone": "+1-510-528-5000",
          "website": "https://delhidiner.net/",
          "wheelchair": "yes"
        }
      }
    },
    {
      "id": "343610988",
      "name": "Chez Mansour",
      "lat": 37.8908761,
      "lng": -122.2907663,
      "category": "restaurant",
      "external_url": "https://www.opentable.com/r/chez-mansour-albany",
      "description": null,
      "open_status": "unknown",
      "confidence": "low",
      "raw": {
        "type": "node",
        "id": 343610988,
        "lat": 37.8908761,
        "lon": -122.2907663,
        "tags": {
          "amenity": "restaurant",
          "cuisine": "lebanese",
          "name": "Chez Mansour",
          "old_name": "Britt-Marie's",
          "opening_hours": "Mo-Su 11:30-21:00",
          "phone": "+1-510-524-1040",
          "website": "https://www.opentable.com/r/chez-mansour-albany",
          "wheelchair": "yes"
        }
      }
    },
    {
      "id": "343610990",
      "name": "China Village",
      "lat": 37.8908524,
      "lng": -122.291192,
      "category": "restaurant",
      "external_url": "https://chinavillagecatogo.com/",
      "description": null,
      "open_status": "unknown",
      "confidence": "low",
      "raw": {
        "type": "node",
        "id": 343610990,
        "lat": 37.8908524,
        "lon": -122.291192,
        "tags": {
          "addr:city": "Albany",
          "addr:country": "US",
          "addr:housenumber": "1335",
          "addr:state": "CA",
          "addr:street": "Solano Avenue",
          "amenity": "restaurant",
          "cuisine": "chinese",
          "name": "China Village",
          "opening_hours": "Mo-Su 11:00-21:30",
          "phone": "+1-510-525-2285",
          "website": "https://chinavillagecatogo.com/",
          "wheelchair": "yes"
        }
      }
    },
    {
      "id": "343610994",
      "name": "Oori Rice Triangles",
      "lat": 37.8906942,
      "lng": -122.2938478,
      "category": "fast_food",
      "external_url": "https://www.ooririce.com/location/oori-foods-albany/",
      "description": null,
      "open_status": "unknown",
      "confidence": "low",
      "raw": {
        "type": "node",
        "id": 343610994,
        "lat": 37.8906942,
        "lon": -122.2938478,
        "tags": {
          "addr:city": "Albany",
          "addr:country": "US",
          "addr:housenumber": "1247",
          "addr:postcode": "94706",
          "addr:state": "CA",
          "addr:street": "Solano Avenue",
          "amenity": "fast_food",
          "cuisine": "japanese;korean",
          "indoor_seating": "yes",
          "name": "Oori Rice Triangles",
          "opening_hours": "Mo-Su 11:00-21:00",
          "outdoor_seating": "yes",
          "takeaway": "yes",
          "website": "https://www.ooririce.com/location/oori-foods-albany/",
          "wheelchair": "limited"
        }
      }
    },
    {
      "id": "343610997",
      "name": "Royal Ground Coffee",
      "lat": 37.8904709,
      "lng": -122.297913,
      "category": "cafe",
      "external_url": "https://www.royalground.coffee/",
      "description": null,
      "open_status": "unknown",
      "confidence": "low",
      "raw": {
        "type": "node",
        "id": 343610997,
        "lat": 37.8904709,
        "lon": -122.297913,
        "tags": {
          "addr:city": "Albany",
          "addr:country": "US",
          "addr:housenumber": "1127",
          "addr:state": "CA",
          "addr:street": "Solano Avenue",
          "amenity": "cafe",
          "cuisine": "coffee_shop",
          "internet_access": "wlan",
          "internet_access:fee": "no",
          "name": "Royal Ground Coffee",
          "opening_hours": "Mo-Fr 06:30-17:00; Sa, Su 07:00-17:00",
          "phone": "+1-510-525-0953",
          "website": "https://www.royalground.coffee/"
        }
      }
    },
    {
      "id": "343610999",
      "name": "Sugata",
      "lat": 37.8904848,
      "lng": -122.2986563,
      "category": "restaurant",
      "external_url": "https://www.sugatarestaurant.com/",
      "description": null,
      "open_status": "unknown",
      "confidence": "low",
      "raw": {
        "type": "node",
        "id": 343610999,
        "lat": 37.8904848,
        "lon": -122.2986563,
        "tags": {
          "amenity": "restaurant",
          "cuisine": "japanese",
          "indoor_seating": "yes",
          "name": "Sugata",
          "opening_hours": "Tu-Sa 11:30-14:00, 17:00-21:00; Su 16:00-21:00",
          "outdoor_seating": "no",
          "phone": "+1-510-529-4027",
          "website": "https://www.sugatarestaurant.com/"
        }
      }
    },
    {
      "id": "343611002",
      "name": "Ivy Room",
      "lat": 37.8904419,
      "lng": -122.2992009,
      "category": "bar",
      "external_url": "https://www.ivyroom.com",
      "description": null,
      "open_status": "unknown",
      "confidence": "low",
      "raw": {
        "type": "node",
        "id": 343611002,
        "lat": 37.8904419,
        "lon": -122.2992009,
        "tags": {
          "addr:city": "Albany",
          "addr:country": "US",
          "addr:housenumber": "860",
          "addr:postcode": "94706",
          "addr:state": "CA",
          "addr:street": "San Pablo Avenue",
          "amenity": "bar",
          "contact:facebook": "ivyroomalbany",
          "contact:instagram": "ivyroom",
          "contact:twitter": "ivyroomalbany",
          "min_age": "21",
          "name": "Ivy Room",
          "phone": "+1 510-526-5888",
          "website": "https://www.ivyroom.com"
        }
      }
    },
    {
      "id": "343611003",
      "name": "Aagan",
      "lat": 37.8905189,
      "lng": -122.299231,
      "category": "restaurant",
      "external_url": "https://www.aangancalifornia.com/",
      "description": null,
      "open_status": "unknown",
      "confidence": "low",
      "raw": {
        "type": "node",
        "id": 343611003,
        "lat": 37.8905189,
        "lon": -122.299231,
        "tags": {
          "addr:city": "Albany",
          "addr:country": "US",
          "addr:housenumber": "856",
          "addr:state": "CA",
          "addr:street": "San Pablo Avenue",
          "amenity": "restaurant",
          "cuisine": "indian;nepalese",
          "name": "Aagan",
          "opening_hours": "Mo, Tu, Th-Su 11:30-14:00, 17:00-22:00",
          "phone": "+1 510-524-2220",
          "website": "https://www.aangancalifornia.com/"
        }
      }
    },
    {
      "id": "343611006",
      "name": "Wojia Hunan Cuisine",
      "lat": 37.8895511,
      "lng": -122.29848,
      "category": "restaurant",
      "external_url": "https://wojiahunancuisine.com/",
      "description": null,
      "open_status": "unknown",
      "confidence": "low",
      "raw": {
        "type": "node",
        "id": 343611006,
        "lat": 37.8895511,
        "lon": -122.29848,
        "tags": {
          "addr:city": "Albany",
          "addr:country": "US",
          "addr:housenumber": "917",
          "addr:postcode": "94706",
          "addr:state": "CA",
          "addr:street": "San Pablo Avenue",
          "amenity": "restaurant",
          "cuisine": "chinese",
          "name": "Wojia Hunan Cuisine",
          "opening_hours": "Mo-Su 11:00-21:00",
          "phone": "+1-510-526-9088",
          "website": "https://wojiahunancuisine.com/"
        }
      }
    },
    {
      "id": "343611008",
      "name": "The Hot Shop",
      "lat": 37.8900058,
      "lng": -122.298601,
      "category": "fast_food",
      "external_url": null,
      "description": null,
      "open_status": "unknown",
      "confidence": "low",
      "raw": {
        "type": "node",
        "id": 343611008,
        "lat": 37.8900058,
        "lon": -122.298601,
        "tags": {
          "addr:city": "Albany",
          "addr:street": "San Pablo Avenue",
          "amenity": "fast_food",
          "cuisine": "mexican",
          "drive_through": "no",
          "indoor_seating": "yes",
          "name": "The Hot Shop",
          "opening_hours": "Mo-Sa 11:00-20:00",
          "outdoor_seating": "no",
          "phone": "+1-510-528-9011"
        }
      }
    },
    {
      "id": "343611010",
      "name": "Everest Kitchen",
      "lat": 37.890221,
      "lng": -122.297414,
      "category": "restaurant",
      "external_url": "https://www.everestkitchenalbany.com",
      "description": null,
      "open_status": "unknown",
      "confidence": "low",
      "raw": {
        "type": "node",
        "id": 343611010,
        "lat": 37.890221,
        "lon": -122.297414,
        "tags": {
          "addr:city": "Albany",
          "addr:country": "US",
          "addr:housenumber": "1150",
          "addr:state": "CA",
          "addr:street": "Solano Avenue",
          "amenity": "restaurant",
          "contact:instagram": "everestkitchen_albany_ca",
          "cuisine": "indian;nepalese",
          "diet:vegetarian": "yes",
          "name": "Everest Kitchen",
          "opening_hours": "Mo, We-Su 11:30-15:00, 16:30-21:00",
          "phone": "+1 510 679-5079",
          "website": "https://www.everestkitchenalbany.com"
        }
      }
    },
    {
      "id": "343611011",
      "name": "Eunice Gourmet Cafe",
      "lat": 37.8902683,
      "lng": -122.2967668,
      "category": "cafe",
      "external_url": "https://eunicegourmet.com/",
      "description": null,
      "open_status": "unknown",
      "confidence": "low",
      "raw": {
        "type": "node",
        "id": 343611011,
        "lat": 37.8902683,
        "lon": -122.2967668,
        "tags": {
          "addr:city": "Albany",
          "addr:country": "US",
          "addr:housenumber": "1162",
          "addr:state": "CA",
          "addr:street": "Solano Avenue",
          "amenity": "cafe",
          "cuisine": "coffee_shop;sandwich",
          "indoor_seating": "yes",
          "name": "Eunice Gourmet Cafe",
          "opening_hours": "Mo-Th, Sa, Su 07:00-17:00",
          "outdoor_seating": "yes",
          "phone": "+1-510-525-6340",
          "website": "https://eunicegourmet.com/",
          "wheelchair": "yes"
        }
      }
    },
    {
      "id": "343611012",
      "name": "Cafe Raj",
      "lat": 37.8902387,
      "lng": -122.2969098,
      "category": "restaurant",
      "external_url": "https://caferajonline.com",
      "description": null,
      "open_status": "unknown",
      "confidence": "low",
      "raw": {
        "type": "node",
        "id": 343611012,
        "lat": 37.8902387,
        "lon": -122.2969098,
        "tags": {
          "addr:city": "Albany",
          "addr:country": "US",
          "addr:housenumber": "1158",
          "addr:state": "CA",
          "addr:street": "Solano Avenue",
          "amenity": "restaurant",
          "cuisine": "indian",
          "delivery:grubhub": "https://www.grubhub.com/restaurant/cafe-raj-1158-solano-ave-albany/546856",
          "diet:vegetarian": "yes",
          "indoor_seating": "yes",
          "name": "Cafe Raj",
          "opening_hours": "Mo-Sa 11:30-23:00; Su 16:00-23:00",
          "outdoor_seating": "yes",
          "phone": "+1 510 524-5667",
          "website": "https://caferajonline.com",
          "wheelchair": "yes"
        }
      }
    },
    {
      "id": "343611013",
      "name": "Tay Tah Cafe",
      "lat": 37.8902766,
      "lng": -122.296313,
      "category": "cafe",
      "external_url": "https://www.taytahcafe.com/",
      "description": null,
      "open_status": "unknown",
      "confidence": "low",
      "raw": {
        "type": "node",
        "id": 343611013,
        "lat": 37.8902766,
        "lon": -122.296313,
        "tags": {
          "addr:city": "Albany",
          "addr:country": "US",
          "addr:housenumber": "1182",
          "addr:state": "CA",
          "addr:street": "Solano Avenue",
          "amenity": "cafe",
          "cuisine": "bubble_tea;coffee_shop",
          "indoor_seating": "yes",
          "name": "Tay Tah Cafe",
          "opening_hours": "Mo 08:00-16:30; Tu-Fr 08:00-17:00; Sa 09:00-17:00; Su 10:00-16:30",
          "outdoor_seating": "sidewalk",
          "phone": "+1-510-527-8104",
          "smoking": "no",
          "website": "https://www.taytahcafe.com/",
          "wheelchair": "yes"
        }
      }
    },
    {
      "id": "343611014",
      "name": "Bua Luang",
      "lat": 37.8902639,
      "lng": -122.2965694,
      "category": "restaurant",
      "external_url": "https://www.bualuangalbany.com/",
      "description": null,
      "open_status": "unknown",
      "confidence": "low",
      "raw": {
        "type": "node",
        "id": 343611014,
        "lat": 37.8902639,
        "lon": -122.2965694,
        "tags": {
          "addr:city": "Albany",
          "addr:country": "US",
          "addr:housenumber": "1166",
          "addr:postcode": "94706",
          "addr:state": "CA",
          "addr:street": "Solano Avenue",
          "amenity": "restaurant",
          "cuisine": "thai",
          "delivery:grubhub": "https://www.grubhub.com/restaurant/bua-luang-thai-1166-solano-ave-albany/545575",
          "delivery:ubereats": "https://www.ubereats.com/store/bualuang-thai-cuisine/K54fe40CTTe0l7BF8p2-CA",
          "diet:meat": "yes",
          "diet:vegetarian": "yes",
          "indoor_seating": "yes",
          "name": "Bua Luang",
          "opening_hours": "Tu-Fr 11:30-14:30, 17:00-20:30; Sa, Su 12:00-15:00, 17:00-20:30",
          "outdoor_seating": "yes",
          "phone": "+1 510 527 8288",
          "smoking": "no",
          "takeaway": "yes",
          "website": "https://www.bualuangalbany.com/",
          "wheelchair": "limited"
        }
      }
    },
    {
      "id": "343611019",
      "name": "Lao/Thai Kitchen",
      "lat": 37.890685,
      "lng": -122.2891905,
      "category": "restaurant",
      "external_url": "https://laothaikitchen.com/",
      "description": null,
      "open_status": "unknown",
      "confidence": "low",
      "raw": {
        "type": "node",
        "id": 343611019,
        "lat": 37.890685,
        "lon": -122.2891905,
        "tags": {
          "addr:country": "US",
          "addr:housenumber": "1406",
          "addr:state": "CA",
          "addr:street": "Solano Avenue",
          "amenity": "restaurant",
          "cuisine": "lao;thai",
          "name": "Lao/Thai Kitchen",
          "opening_hours": "Tu-Fr 16:30-21:00; Sa 12:00-15:00, 16:30-21:00; Su 16:00-20:00",
          "phone": "+1-510-558-8915",
          "website": "https://laothaikitchen.com/"
        }
      }
    },
    {
      "id": "343611020",
      "name": "Kathmandu Restaurant",
      "lat": 37.890693,
      "lng": -122.289034,
      "category": "restaurant",
      "external_url": "http://kathmandu-restaurant.com/",
      "description": null,
      "open_status": "unknown",
      "confidence": "low",
      "raw": {
        "type": "node",
        "id": 343611020,
        "lat": 37.890693,
        "lon": -122.289034,
        "tags": {
          "addr:city": "Albany",
          "addr:country": "US",
          "addr:housenumber": "1410",
          "addr:state": "CA",
          "addr:street": "Solano Avenue",
          "amenity": "restaurant",
          "cuisine": "nepalese;tibetan",
          "name": "Kathmandu Restaurant",
          "opening_hours": "Mo-Su 17:00-21:00",
          "phone": "+1-510-526-3222",
          "website": "http://kathmandu-restaurant.com/"
        }
      }
    },
    {
      "id": "343611021",
      "name": "Schmidt's Tobacco & Trading Co.",
      "lat": 37.8906715,
      "lng": -122.288301,
      "category": "unknown",
      "external_url": "https://www.facebook.com/profile.php?id=100049612578113",
      "description": null,
      "open_status": "unknown",
      "confidence": "low",
      "raw": {
        "type": "node",
        "id": 343611021,
        "lat": 37.8906715,
        "lon": -122.288301,
        "tags": {
          "addr:country": "US",
          "addr:housenumber": "1492",
          "addr:state": "CA",
          "addr:street": "Solano Avenue",
          "alt_name": "The Pub",
          "amenity": "pub",
          "name": "Schmidt's Tobacco & Trading Co.",
          "phone": "+1 510-525-1900",
          "website": "https://www.facebook.com/profile.php?id=100049612578113"
        }
      }
    },
    {
      "id": "343611045",
      "name": "Sweet Basil",
      "lat": 37.891125,
      "lng": -122.281599,
      "category": "restaurant",
      "external_url": "https://sweetbasilberkeley.com/",
      "description": null,
      "open_status": "unknown",
      "confidence": "low",
      "raw": {
        "type": "node",
        "id": 343611045,
        "lat": 37.891125,
        "lon": -122.281599,
        "tags": {
          "addr:city": "Berkeley",
          "addr:country": "US",
          "addr:housenumber": "1736",
          "addr:postcode": "94707",
          "addr:state": "CA",
          "addr:street": "Solano Avenue",
          "amenity": "restaurant",
          "cuisine": "thai",
          "level": "1",
          "name": "Sweet Basil",
          "opening_hours": "Mo-Sa 11:30-21:00",
          "outdoor_seating": "yes",
          "phone": "+1-510-527-8611",
          "terrace": "yes",
          "website": "https://sweetbasilberkeley.com/"
        }
      }
    },
    {
      "id": "343611059",
      "name": "Lavender Bakery & Cafe",
      "lat": 37.8912169,
      "lng": -122.2794208,
      "category": "cafe",
      "external_url": "https://lavenderbakeries.com/",
      "description": null,
      "open_status": "unknown",
      "confidence": "low",
      "raw": {
        "type": "node",
        "id": 343611059,
        "lat": 37.8912169,
        "lon": -122.2794208,
        "tags": {
          "addr:city": "Berkeley",
          "addr:country": "US",
          "addr:housenumber": "1820",
          "addr:postcode": "94707",
          "addr:state": "CA",
          "addr:street": "Solano Avenue",
          "amenity": "cafe",
          "indoor_seating": "no",
          "name": "Lavender Bakery & Cafe",
          "old_name": "La Farine",
          "outdoor_seating": "sidewalk",
          "phone": "+1-510-529-4433",
          "shop": "bakery",
          "website": "https://lavenderbakeries.com/"
        }
      }
    },
    {
      "id": "343611064",
      "name": "Cugini",
      "lat": 37.8909282,
      "lng": -122.285048,
      "category": "restaurant",
      "external_url": "https://www.cuginirestaurant.com/",
      "description": null,
      "open_status": "unknown",
      "confidence": "low",
      "raw": {
        "type": "node",
        "id": 343611064,
        "lat": 37.8909282,
        "lon": -122.285048,
        "tags": {
          "addr:city": "Albany",
          "addr:country": "US",
          "addr:housenumber": "1556",
          "addr:state": "CA",
          "addr:street": "Solano Avenue",
          "amenity": "restaurant",
          "cuisine": "italian",
          "name": "Cugini",
          "opening_hours": "Tu-Su 11:30-21:00",
          "phone": "+1-510-558-9000",
          "website": "https://www.cuginirestaurant.com/"
        }
      }
    },
    {
      "id": "354035785",
      "name": "Top Dog",
      "lat": 37.8678906,
      "lng": -122.2573998,
      "category": "fast_food",
      "external_url": "http://www.topdoghotdogs.com/",
      "description": null,
      "open_status": "unknown",
      "confidence": "low",
      "raw": {
        "type": "node",
        "id": 354035785,
        "lat": 37.8678906,
        "lon": -122.2573998,
        "tags": {
          "addr:housenumber": "2534",
          "addr:street": "Durant Avenue",
          "amenity": "fast_food",
          "check_date": "2025-02-20",
          "cuisine": "hot_dog",
          "drive_through": "no",
          "indoor_seating": "no",
          "name": "Top Dog",
          "outdoor_seating": "no",
          "phone": "+1 510 8435967",
          "website": "http://www.topdoghotdogs.com/",
          "wheelchair": "yes"
        }
      }
    },
    {
      "id": "354067005",
      "name": "MY Coffee Roastery",
      "lat": 37.8706902,
      "lng": -122.2731666,
      "category": "cafe",
      "external_url": "https://www.mycoffeeroastery.com/",
      "description": null,
      "open_status": "unknown",
      "confidence": "low",
      "raw": {
        "type": "node",
        "id": 354067005,
        "lat": 37.8706902,
        "lon": -122.2731666,
        "tags": {
          "addr:city": "Berkeley",
          "addr:country": "US",
          "addr:housenumber": "2080",
          "addr:state": "CA",
          "addr:street": "Martin Luther King Jr Way",
          "amenity": "cafe",
          "cuisine": "coffee_shop",
          "indoor_seating": "yes",
          "name": "MY Coffee Roastery",
          "opening_hours": "Sa,Su 09:00-17:00; We-Fr 08:00-16:00",
          "outdoor_seating": "yes",
          "phone": "+1-510-981-1872",
          "smoking": "no",
          "takeaway": "yes",
          "website": "https://www.mycoffeeroastery.com/",
          "wheelchair": "yes"
        }
      }
    },
    {
      "id": "354645983",
      "name": "The Hidden Café",
      "lat": 37.868315,
      "lng": -122.2867924,
      "category": "restaurant",
      "external_url": "https://www.thehiddencafe.life/",
      "description": null,
      "open_status": "unknown",
      "confidence": "low",
      "raw": {
        "type": "node",
        "id": 354645983,
        "lat": 37.868315,
        "lon": -122.2867924,
        "tags": {
          "addr:city": "Berkeley",
          "addr:country": "US",
          "addr:housenumber": "1250",
          "addr:postcode": "94702",
          "addr:state": "CA",
          "addr:street": "Addison Street",
          "addr:unit": "111",
          "amenity": "restaurant",
          "cuisine": "coffee_shop;tea",
          "diet:vegetarian": "yes",
          "internet_access": "wlan",
          "name": "The Hidden Café",
          "opening_hours": "Tu-Su 08:30-18:00",
          "phone": "+1 510-543-2233",
          "website": "https://www.thehiddencafe.life/"
        }
      }
    },