{
  "city": "stockton",
  "version": "v1",
  "generated_at": "2026-03-01T00:13:22.048017+00:00",
  "places": [
    {
      "id": "444098109",
      "name": "Togo's",
      "lat": 37.8960465,
      "lng": -121.2810158,
      "category": "fast_food",
      "external_url": null,
      "description": null,
      "open_status": "unknown",
      "confidence": "low",
      "raw": {
        "type": "node",
        "id": 444098109,
        "lat": 37.8960465,
        "lon": -121.2810158,
        "tags": {
          "amenity": "fast_food",
          "brand": "Togo's",
          "brand:wikidata": "Q3530375",
          "cuisine": "sandwich",
          "name": "Togo's",
          "takeaway": "yes"
        }
      }
    },
    {
      "id": "1609584205",
      "name": "Jack in the Box",
      "lat": 38.0558527,
      "lng": -121.3756325,
      "category": "fast_food",
      "external_url": "https://locations.jackinthebox.com/us/ca/stockton/10858-trinity-park-way",
      "description": null,
      "open_status": "unknown",
      "confidence": "low",
      "raw": {
        "type": "node",
        "id": 1609584205,
        "lat": 38.0558527,
        "lon": -121.3756325,
        "tags": {
          "addr:city": "Stockton",
          "addr:housenumber": "10858",
          "addr:postcode": "95219",
          "addr:state": "CA",
          "addr:street": "Trinity Park Way",
          "amenity": "fast_food",
          "brand": "Jack in the Box",
          "brand:wikidata": "Q1538507",
          "cuisine": "burger",
          "name": "Jack in the Box",
          "phone": "+1 209-800-3650",
          "takeaway": "yes",
          "website": "https://locations.jackinthebox.com/us/ca/stockton/10858-trinity-park-way"
        }
      }
    },
    {
      "id": "2674335030",
      "name": "Tequileros Taqueria",
      "lat": 37.9869467,
      "lng": -121.311844,
      "category": "restaurant",
      "external_url": "https://www.tequilerostaqueria.com/",
      "description": null,
      "open_status": "unknown",
      "confidence": "low",
      "raw": {
        "type": "node",
        "id": 2674335030,
        "lat": 37.9869467,
        "lon": -121.311844,
        "tags": {
          "addr:city": "Stockton",
          "addr:housenumber": "4343",
          "addr:postcode": "95207",
          "addr:state": "CA",
          "addr:street": "Pacific Avenue",
          "addr:unit": "A9",
          "amenity": "restaurant",
          "cuisine": "mexican",
          "name": "Tequileros Taqueria",
          "opening_hours": "Mo-Su 10:00-22:00",
          "phone": "+1 209 715 1806",
          "website": "https://www.tequilerostaqueria.com/"
        }
      }
    },
    {
      "id": "2675775157",
      "name": "Dynasty",
      "lat": 38.0100736,
      "lng": -121.3221362,
      "category": "restaurant",
      "external_url": null,
      "description": null,
      "open_status": "unknown",
      "confidence": "low",
      "raw": {
        "type": "node",
        "id": 2675775157,
        "lat": 38.0100736,
        "lon": -121.3221362,
        "tags": {
          "amenity": "restaurant",
          "cuisine": "chinese",
          "name": "Dynasty"
        }
      }
    },
    {
      "id": "2675775174",
      "name": "Tepa Taqueria",
      "lat": 37.990634,
      "lng": -121.3213013,
      "category": "restaurant",
      "external_url": null,
      "description": null,
      "open_status": "unknown",
      "confidence": "low",
      "raw": {
        "type": "node",
        "id": 2675775174,
        "lat": 37.990634,
        "lon": -121.3213013,
        "tags": {
          "amenity": "restaurant",
          "cuisine": "mexican",
          "name": "Tepa Taqueria"
        }
      }
    },
    {
      "id": "2675775212",
      "name": "Lollicup Tea Zone",
      "lat": 37.9848523,
      "lng": -121.334121,
      "category": "cafe",
      "external_url": null,
      "description": null,
      "open_status": "unknown",
      "confidence": "low",
      "raw": {
        "type": "node",
        "id": 2675775212,
        "lat": 37.9848523,
        "lon": -121.334121,
        "tags": {
          "addr:city": "Stockton",
          "addr:housenumber": "2233",
          "addr:postcode": "95207",
          "addr:state": "CA",
          "addr:street": "Grand Canal Boulevard",
          "addr:unit": "204A",
          "amenity": "cafe",
          "cuisine": "bubble_tea",
          "name": "Lollicup Tea Zone"
        }
      }
    },
    {
      "id": "2675775215",
      "name": "Swagat Indian Cuisine",
      "lat": 37.9848934,
      "lng": -121.3339657,
      "category": "restaurant",
      "external_url": null,
      "description": null,
      "open_status": "unknown",
      "confidence": "low",
      "raw": {
        "type": "node",
        "id": 2675775215,
        "lat": 37.9848934,
        "lon": -121.3339657,
        "tags": {
          "addr:city": "Stockton",
          "addr:housenumber": "2233",
          "addr:postcode": "95207",
          "addr:street": "Grand Canal Boulevard",
          "addr:unit": "205",
          "amenity": "restaurant",
          "cuisine": "indian",
          "name": "Swagat Indian Cuisine",
          "phone": "+1-209-478-4724"
        }
      }
    },
    {
      "id": "2684512523",
      "name": "Subway",
      "lat": 37.9905752,
      "lng": -121.3127406,
      "category": "fast_food",
      "external_url": "https://restaurants.subway.com/united-states/ca/stockton/4663-pacific-ave",
      "description": null,
      "open_status": "unknown",
      "confidence": "low",
      "raw": {
        "type": "node",
        "id": 2684512523,
        "lat": 37.9905752,
        "lon": -121.3127406,
        "tags": {
          "addr:city": "Stockton",
          "addr:housenumber": "4663",
          "addr:postcode": "95207",
          "addr:state": "CA",
          "addr:street": "Pacific Avenue",
          "addr:unit": "B",
          "amenity": "fast_food",
          "brand": "Subway",
          "brand:wikidata": "Q244457",
          "cuisine": "sandwich",
          "name": "Subway",
          "opening_hours": "Mo-Fr 07:00-21:30; Sa 08:00-21:00; Su 09:00-21:00",
          "phone": "+1 209-473-4744",
          "takeaway": "yes",
          "website": "https://restaurants.subway.com/united-states/ca/stockton/4663-pacific-ave"
        }
      }
    },
    {
      "id": "2690341502",
      "name": "Ono Hawaiian BBQ",
      "lat": 37.9985805,
      "lng": -121.3141169,
      "category": "restaurant",
      "external_url": null,
      "description": null,
      "open_status": "unknown",
      "confidence": "low",
      "raw": {
        "type": "node",
        "id": 2690341502,
        "lat": 37.9985805,
        "lon": -121.3141169,
        "tags": {
          "amenity": "restaurant",
          "brand": "Ono Hawaiian BBQ",
          "brand:wikidata": "Q99526964",
          "cuisine": "barbecue;hawaiian",
          "name": "Ono Hawaiian BBQ"
        }
      }
    },
    {
      "id": "2690341508",
      "name": "Papa Murphy's",
      "lat": 37.9905416,
      "lng": -121.3128645,
      "category": "fast_food",
      "external_url": null,
      "description": null,
      "open_status": "unknown",
      "confidence": "low",
      "raw": {
        "type": "node",
        "id": 2690341508,
        "lat": 37.9905416,
        "lon": -121.3128645,
        "tags": {
          "amenity": "fast_food",
          "brand": "Papa Murphy's",
          "brand:wikidata": "Q7132349",
          "cuisine": "pizza",
          "name": "Papa Murphy's",
          "official_name": "Papa Murphy's Take 'N' Bake Pizza",
          "takeaway": "only"
        }
      }
    },
    {
      "id": "2697114400",
      "name": "L&L Hawaiian Barbecue",
      "lat": 37.9875627,
      "lng": -121.3216727,
      "category": "fast_food",
      "external_url": null,
      "description": null,
      "open_status": "unknown",
      "confidence": "low",
      "raw": {
        "type": "node",
        "id": 2697114400,
        "lat": 37.9875627,
        "lon": -121.3216727,
        "tags": {
          "amenity": "fast_food",
          "brand": "L&L Hawaiian Barbecue",
          "brand:wikidata": "Q6455441",
          "cuisine": "hawaiian",
          "name": "L&L Hawaiian Barbecue",
          "takeaway": "yes"
        }
      }
    },
    {
      "id": "2711826816",
      "name": "Da Vinci's",
      "lat": 37.9870215,
      "lng": -121.3219248,
      "category": "restaurant",
      "external_url": null,
      "description": null,
      "open_status": "unknown",
      "confidence": "low",
      "raw": {
        "type": "node",
        "id": 2711826816,
        "lat": 37.9870215,
        "lon": -121.3219248,
        "tags": {
          "amenity": "restaurant",
          "name": "Da Vinci's"
        }
      }
    },
    {
      "id": "2711826818",
      "name": "Taquiera Carolina",
      "lat": 37.986994,
      "lng": -121.3220321,
      "category": "restaurant",
      "external_url": null,
      "description": null,
      "open_status": "unknown",
      "confidence": "low",
      "raw": {
        "type": "node",
        "id": 2711826818,
        "lat": 37.986994,
        "lon": -121.3220321,
        "tags": {
          "amenity": "restaurant",
          "cuisine": "mexican",
          "name": "Taquiera Carolina"
        }
      }
    },
    {
      "id": "2711826827",
      "name": "Pizza Hut",
      "lat": 37.9894221,
      "lng": -121.3224301,
      "category": "restaurant",
      "external_url": "https://locations.pizzahut.com/ca/stockton/4729-n-pershing-ave",
      "description": null,
      "open_status": "unknown",
      "confidence": "low",
      "raw": {
        "type": "node",
        "id": 2711826827,
        "lat": 37.9894221,
        "lon": -121.3224301,
        "tags": {
          "addr:city": "Stockton",
          "addr:housenumber": "4729",
          "addr:postcode": "95207",
          "addr:state": "CA",
          "addr:street": "North Pershing Avenue",
          "amenity": "restaurant",
          "brand": "Pizza Hut",
          "brand:wikidata": "Q191615",
          "cuisine": "pizza",
          "name": "Pizza Hut",
          "phone": "+1 209-951-0100",
          "website": "https://locations.pizzahut.com/ca/stockton/4729-n-pershing-ave"
        }
      }
    },
    {
      "id": "2711826836",
      "name": "Togo's",
      "lat": 37.9897877,
      "lng": -121.3228802,
      "category": "fast_food",
      "external_url": null,
      "description": null,
      "open_status": "unknown",
      "confidence": "low",
      "raw": {
        "type": "node",
        "id": 2711826836,
        "lat": 37.9897877,
        "lon": -121.3228802,
        "tags": {
          "amenity": "fast_food",
          "brand": "Togo's",
          "brand:wikidata": "Q3530375",
          "cuisine": "sandwich",
          "name": "Togo's",
          "takeaway": "yes"
        }
      }
    },
    {
      "id": "2711826852",
      "name": "T4 Tea For U",
      "lat": 37.99056,
      "lng": -121.321628,
      "category": "cafe",
      "external_url": null,
      "description": null,
      "open_status": "unknown",
      "confidence": "low",
      "raw": {
        "type": "node",
        "id": 2711826852,
        "lat": 37.99056,
        "lon": -121.321628,
        "tags": {
          "alt_name": "T4 Tea House",
          "amenity": "cafe",
          "brand": "T4",
          "brand:wikidata": "Q112123535",
          "cuisine": "bubble_tea",
          "name": "T4 Tea For U",
          "takeaway": "yes"
        }
      }
    },
    {
      "id": "2711826853",
      "name": "Poke Salad",
      "lat": 37.9905896,
      "lng": -121.321548,
      "category": "restaurant",
      "external_url": null,
      "description": null,
      "open_status": "unknown",
      "confidence": "low",
      "raw": {
        "type": "node",
        "id": 2711826853,
        "lat": 37.9905896,
        "lon": -121.321548,
        "tags": {
          "amenity": "restaurant",
          "cuisine": "poke",
          "name": "Poke Salad"
        }
      }
    },
    {
      "id": "2961951748",
      "name": "Church's Chicken",
      "lat": 37.9386508,
      "lng": -121.2854577,
      "category": "fast_food",
      "external_url": "https://locations.churchs.com/ca/stockton/110-doctor-mlk-jr-boulevard",
      "description": null,
      "open_status": "unknown",
      "confidence": "low",
      "raw": {
        "type": "node",
        "id": 2961951748,
        "lat": 37.9386508,
        "lon": -121.2854577,
        "tags": {
          "addr:city": "Stockton",
          "addr:housenumber": "110",
          "addr:postcode": "95206",
          "addr:state": "CA",
          "addr:street": "Doctor M.L.K. Jr Boulevard",
          "amenity": "fast_food",
          "brand": "Church's Chicken",
          "brand:wikidata": "Q1089932",
          "cuisine": "chicken",
          "name": "Church's Chicken",
          "phone": "+1 209-948-6351",
          "takeaway": "yes",
          "website": "https://locations.churchs.com/ca/stockton/110-doctor-mlk-jr-boulevard"
        }
      }
    },
    {
      "id": "2961951754",
      "name": "El Grullense",
      "lat": 37.9392467,
      "lng": -121.2865553,
      "category": "restaurant",
      "external_url": null,
      "description": null,
      "open_status": "unknown",
      "confidence": "low",
      "raw": {
        "type": "node",
        "id": 2961951754,
        "lat": 37.9392467,
        "lon": -121.2865553,
        "tags": {
          "amenity": "restaurant",
          "name": "El Grullense"
        }
      }
    },
    {
      "id": "2962128081",
      "name": "McDonald's",
      "lat": 38.0229933,
      "lng": -121.2738746,
      "category": "fast_food",
      "external_url": null,
      "description": null,
      "open_status": "unknown",
      "confidence": "low",
      "raw": {
        "type": "node",
        "id": 2962128081,
        "lat": 38.0229933,
        "lon": -121.2738746,
        "tags": {
          "amenity": "fast_food",
          "brand": "McDonald's",
          "brand:wikidata": "Q38076",
          "cuisine": "burger",
          "fixme:atp": "Check if still exists. No corresponding ATP object.",
          "name": "McDonald's",
          "takeaway": "yes"
        }
      }
    },
    {
      "id": "2962130634",
      "name": "Panda Express",
      "lat": 38.0206237,
      "lng": -121.3197065,
      "category": "fast_food",
      "external_url": "https://www.pandaexpress.com/locations/ca/stockton/839",
      "description": null,
      "open_status": "unknown",
      "confidence": "low",
      "raw": {
        "type": "node",
        "id": 2962130634,
        "lat": 38.0206237,
        "lon": -121.3197065,
        "tags": {
          "addr:city": "Stockton",
          "addr:housenumber": "616",
          "addr:postcode": "95207",
          "addr:state": "CA",
          "addr:street": "West Hammer Lane",
          "addr:unit": "A",
          "amenity": "fast_food",
          "branch": "Pacific & Hammer",
          "brand": "Panda Express",
          "brand:wikidata": "Q1358690",
          "cuisine": "chinese",
          "name": "Panda Express",
          "opening_hours": "09:30-21:30",
          "phone": "+1 209-475-0138",
          "takeaway": "yes",
          "website": "https://www.pandaexpress.com/locations/ca/stockton/839"
        }
      }
    },
    {
      "id": "2978644024",
      "name": "California Donuts and Deli",
      "lat": 37.9868167,
      "lng": -121.30168,
      "category": "fast_food",
      "external_url": null,
      "description": null,
      "open_status": "unknown",
      "confidence": "low",
      "raw": {
        "type": "node",
        "id": 2978644024,
        "lat": 37.9868167,
        "lon": -121.30168,
        "tags": {
          "addr:city": "Stockton",
          "addr:housenumber": "4130",
          "addr:street": "North El Dorado Street",
          "amenity": "fast_food",
          "cuisine": "donut",
          "name": "California Donuts and Deli"
        }
      }
    },
    {
      "id": "2983914313",
      "name": "Ira & Luis Cafe",
      "lat": 37.9611588,
      "lng": -121.2823188,
      "category": "cafe",
      "external_url": null,
      "description": null,
      "open_status": "unknown",
      "confidence": "low",
      "raw": {
        "type": "node",
        "id": 2983914313,
        "lat": 37.9611588,
        "lon": -121.2823188,
        "tags": {
          "amenity": "cafe",
          "name": "Ira & Luis Cafe"
        }
      }
    },
    {
      "id": "2983924443",
      "name": "Denny's",
      "lat": 37.9857895,
      "lng": -121.2476354,
      "category": "restaurant",
      "external_url": null,
      "description": null,
      "open_status": "unknown",
      "confidence": "low",
      "raw": {
        "type": "node",
        "id": 2983924443,
        "lat": 37.9857895,
        "lon": -121.2476354,
        "tags": {
          "amenity": "restaurant",
          "brand": "Denny's",
          "brand:wikidata": "Q1189695",
          "cuisine": "american",
          "name": "Denny's"
        }
      }
    },
    {
      "id": "2983924701",
      "name": "Starbucks",
      "lat": 37.9615478,
      "lng": -121.269804,
      "category": "cafe",
      "external_url": "https://www.starbucks.com/store-locator/store/7830/fremont-wilson-stockton-1705-e-fremont-st-a-stockton-ca-952054519-us",
      "description": null,
      "open_status": "unknown",
      "confidence": "low",
      "raw": {
        "type": "node",
        "id": 2983924701,
        "lat": 37.9615478,
        "lon": -121.269804,
        "tags": {
          "addr:city": "Stockton",
          "addr:housenumber": "1705",
          "addr:postcode": "95205",
          "addr:state": "CA",
          "addr:street": "East Fremont Street",
          "addr:unit": "A",
          "amenity": "cafe",
          "branch": "Fremont & Wilson - Stockton",
          "brand": "Starbucks",
          "brand:wikidata": "Q37158",
          "cuisine": "coffee_shop",
          "name": "Starbucks",
          "official_name": "Starbucks Coffee",
          "phone": "+1 209-469-2934",
          "ref": "7830",
          "takeaway": "yes",
          "website": "https://www.starbucks.com/store-locator/store/7830/fremont-wilson-stockton-1705-e-fremont-st-a-stockton-ca-952054519-us"
        }
      }
    },
    {
      "id": "2983926238",
      "name": "Yum Yum Donuts",
      "lat": 37.9609643,
      "lng": -121.272685,
      "category": "fast_food",
      "external_url": null,
      "description": null,
      "open_status": "unknown",
      "confidence": "low",
      "raw": {
        "type": "node",
        "id": 2983926238,
        "lat": 37.9609643,
        "lon": -121.272685,
        "tags": {
          "amenity": "fast_food",
          "brand": "Yum Yum Donuts",
          "brand:wikidata": "Q8061011",
          "cuisine": "donut",
          "name": "Yum Yum Donuts",
          "takeaway": "yes"
        }
      }
    },
    {
      "id": "2983933973",
      "name": "Jack in the Box",
      "lat": 37.9672934,
      "lng": -121.297856,
      "category": "fast_food",
      "external_url": "https://locations.jackinthebox.com/us/ca/stockton/1504-pacific-ave",
      "description": null,
      "open_status": "unknown",
      "confidence": "low",
      "raw": {
        "type": "node",
        "id": 2983933973,
        "lat": 37.9672934,
        "lon": -121.297856,
        "tags": {
          "addr:city": "Stockton",
          "addr:housenumber": "1504",
          "addr:postcode": "95204",
          "addr:state": "CA",
          "addr:street": "Pacific Avenue",
          "amenity": "fast_food",
          "brand": "Jack in the Box",
          "brand:wikidata": "Q1538507",
          "cuisine": "burger",
          "drive_through": "yes",
          "name": "Jack in the Box",
          "phone": "+1 209-337-3756",
          "takeaway": "yes",
          "website": "https://locations.jackinthebox.com/us/ca/stockton/1504-pacific-ave"
        }
      }
    },
    {
      "id": "2983935254",
      "name": "Taco Bell",
      "lat": 37.9676835,
      "lng": -121.294303,
      "category": "fast_food",
      "external_url": "https://locations.tacobell.com/ca/stockton/45-e-harding-way.html",
      "description": null,
      "open_status": "unknown",
      "confidence": "low",
      "raw": {
        "type": "node",
        "id": 2983935254,
        "lat": 37.9676835,
        "lon": -121.294303,
        "tags": {
          "addr:city": "Stockton",
          "addr:housenumber": "45",
          "addr:postcode": "95204",
          "addr:state": "CA",
          "addr:street": "East Harding Way",
          "amenity": "fast_food",
          "brand": "Taco Bell",
          "brand:wikidata": "Q752941",
          "cuisine": "tex-mex",
          "name": "Taco Bell",
          "opening_hours": "Mo-Th 06:00-02:00; Fr-Sa 06:00-03:00; Su 06:00-02:00",
          "phone": "+1 209-943-2782",
          "takeaway": "yes",
          "website": "https://locations.tacobell.com/ca/stockton/45-e-harding-way.html"
        }
      }
    },
    {
      "id": "3748087528",
      "name": "KFC",
      "lat": 37.9710636,
      "lng": -121.2761048,
      "category": "fast_food",
      "external_url": "https://locations.kfc.com/ca/stockton/1537-n-wilson-way",
      "description": null,
      "open_status": "unknown",
      "confidence": "low",
      "raw": {
        "type": "node",
        "id": 3748087528,
        "lat": 37.9710636,
        "lon": -121.2761048,
        "tags": {
          "alt_name": "Kentucky Fried Chicken",
          "amenity": "fast_food",
          "brand": "KFC",
          "brand:wikidata": "Q524757",
          "cuisine": "chicken",
          "drive_through": "yes",
          "name": "KFC",
          "takeaway": "yes",
          "website": "https://locations.kfc.com/ca/stockton/1537-n-wilson-way"
        }
      }
    },
    {
      "id": "3748097155",
      "name": "Burger King",
      "lat": 37.9634257,
      "lng": -121.2731886,
      "category": "fast_food",
      "external_url": "https://www.bk.com/store-locator/store/restaurant_2720",
      "description": null,
      "open_status": "unknown",
      "confidence": "low",
      "raw": {
        "type": "node",
        "id": 3748097155,
        "lat": 37.9634257,
        "lon": -121.2731886,
        "tags": {
          "addr:city": "Stockton",
          "addr:housenumber": "702",
          "addr:postcode": "95205-4225",
          "addr:state": "CA",
          "addr:street": "North Wilson Way",
          "amenity": "fast_food",
          "brand": "Burger King",
          "brand:wikidata": "Q177054",
          "cuisine": "burger",
          "delivery": "yes",
          "drive_through": "yes",
          "internet_access": "wlan",
          "name": "Burger King",
          "opening_hours": "06:00-22:00",
          "phone": "+1 209-937-0844",
          "ref": "4861",
          "takeaway": "yes",
          "website": "https://www.bk.com/store-locator/store/restaurant_2720"
        }
      }
    },
    {
      "id": "3748097174",
      "name": "Domino's",
      "lat": 37.9395247,
      "lng": -121.28111,
      "category": "fast_food",
      "external_url": "https://pizza.dominos.com/california/stockton/402-e-charter-way",
      "description": null,
      "open_status": "unknown",
      "confidence": "low",
      "raw": {
        "type": "node",
        "id": 3748097174,
        "lat": 37.9395247,
        "lon": -121.28111,
        "tags": {
          "addr:city": "Stockton",
          "addr:housenumber": "402",
          "addr:postcode": "95206",
          "addr:state": "CA",
          "addr:street": "East Charter Way",
          "amenity": "fast_food",
          "brand": "Domino's",
          "brand:wikidata": "Q839466",
          "cuisine": "pizza",
          "name": "Domino's",
          "opening_hours": "Mo-Th 10:00-24:00; Fr-Sa 10:00-01:00; Su 10:00-24:00",
          "phone": "+1 209-464-0303",
          "ref": "8338",
          "short_name": "Domino's",
          "takeaway": "yes",
          "website": "https://pizza.dominos.com/california/stockton/402-e-charter-way"
        }
      }
    },
    {
      "id": "3748097977",
      "name": "Eddie's Pizza",
      "lat": 37.9668685,
      "lng": -121.2723593,
      "category": "restaurant",
      "external_url": null,
      "description": null,
      "open_status": "unknown",
      "confidence": "low",
      "raw": {
        "type": "node",
        "id": 3748097977,
        "lat": 37.9668685,
        "lon": -121.2723593,
        "tags": {
          "amenity": "restaurant",
          "name": "Eddie's Pizza"
        }
      }
    },
    {
      "id": "3748100426",
      "name": "Subway",
      "lat": 37.963407,
      "lng": -121.2725766,
      "category": "fast_food",
      "external_url": "https://restaurants.subway.com/united-states/ca/stockton/678-n-wilson-way",
      "description": null,
      "open_status": "unknown",
      "confidence": "low",
      "raw": {
        "type": "node",
        "id": 3748100426,
        "lat": 37.963407,
        "lon": -121.2725766,
        "tags": {
          "addr:city": "Stockton",
          "addr:housenumber": "678",
          "addr:postcode": "95205",
          "addr:state": "CA",
          "addr:street": "North Wilson Way",
          "amenity": "fast_food",
          "brand": "Subway",
          "brand:wikidata": "Q244457",
          "cuisine": "sandwich",
          "name": "Subway",
          "opening_hours": "Mo-Fr 07:00-21:30; Sa 08:00-21:00; Su 09:00-21:00",
          "phone": "+1 209-466-2433",
          "takeaway": "yes",
          "website": "https://restaurants.subway.com/united-states/ca/stockton/678-n-wilson-way"
        }
      }
    },
    {
      "id": "3748100427",
      "name": "Sombrero Taqueria",
      "lat": 37.9634536,
      "lng": -121.2724082,
      "category": "restaurant",
      "external_url": null,
      "description": null,
      "open_status": "unknown",
      "confidence": "low",
      "raw": {
        "type": "node",
        "id": 3748100427,
        "lat": 37.9634536,
        "lon": -121.2724082,
        "tags": {
          "amenity": "restaurant",
          "name": "Sombrero Taqueria"
        }
      }
    },
    {
      "id": "3748100428",
      "name": "El Polo Loco",
      "lat": 37.9630866,
      "lng": -121.2731179,
      "category": "fast_food",
      "external_url": null,
      "description": null,
      "open_status": "unknown",
      "confidence": "low",
      "raw": {
        "type": "node",
        "id": 3748100428,
        "lat": 37.9630866,
        "lon": -121.2731179,
        "tags": {
          "amenity": "fast_food",
          "name": "El Polo Loco"
        }
      }
    },
    {
      "id": "3862258853",
      "name": "McDonald's",
      "lat": 37.96667,
      "lng": -121.2979004,
      "category": "fast_food",
      "external_url": "https://www.mcdonalds.com/us/en-us/location/6216.html",
      "description": null,
      "open_status": "unknown",
      "confidence": "low",
      "raw": {
        "type": "node",
        "id": 3862258853,
        "lat": 37.96667,
        "lon": -121.2979004,
        "tags": {
          "addr:city": "Stockton",
          "addr:country": "US",
          "addr:housenumber": "1423",
          "addr:postcode": "95202-1022",
          "addr:state": "CA",
          "addr:street": "North Center Street",
          "amenity": "fast_food",
          "brand": "McDonald's",
          "brand:wikidata": "Q38076",
          "cuisine": "burger",
          "drive_through": "yes",
          "internet_access": "wlan",
          "name": "McDonald's",
          "opening_hours": "05:00-23:00",
          "phone": "+1 209-307-6555",
          "ref": "6216",
          "takeaway": "yes",
          "website": "https://www.mcdonalds.com/us/en-us/location/6216.html"
        }
      }
    },
    {
      "id": "3862258855",
      "name": "Le's Dynasty",
      "lat": 37.9670738,
      "lng": -121.2939165,
      "category": "restaurant",
      "external_url": null,
      "description": null,
      "open_status": "unknown",
      "confidence": "low",
      "raw": {
        "type": "node",
        "id": 3862258855,
        "lat": 37.9670738,
        "lon": -121.2939165,
        "tags": {
          "amenity": "restaurant",
          "name": "Le's Dynasty"
        }
      }
    },
    {
      "id": "3864110580",
      "name": "Quiznos",
      "lat": 37.9368916,
      "lng": -121.295318,
      "category": "fast_food",
      "external_url": null,
      "description": null,
      "open_status": "unknown",
      "confidence": "low",
      "raw": {
        "type": "node",
        "id": 3864110580,
        "lat": 37.9368916,
        "lon": -121.295318,
        "tags": {
          "amenity": "fast_food",
          "brand": "Quiznos",
          "brand:wikidata": "Q1936229",
          "cuisine": "sandwich",
          "name": "Quiznos",
          "takeaway": "yes"
        }
      }
    },
    {
      "id": "3864112118",
      "name": "Subway",
      "lat": 37.9541996,
      "lng": -121.2859779,
      "category": "fast_food",
      "external_url": "https://restaurants.subway.com/united-states/ca/stockton/46-n-sutter-st",
      "description": null,
      "open_status": "unknown",
      "confidence": "low",
      "raw": {
        "type": "node",
        "id": 3864112118,
        "lat": 37.9541996,
        "lon": -121.2859779,
        "tags": {
          "addr:city": "Stockton",
          "addr:housenumber": "46",
          "addr:postcode": "95202",
          "addr:state": "CA",
          "addr:street": "North Sutter Street",
          "amenity": "fast_food",
          "brand": "Subway",
          "brand:wikidata": "Q244457",
          "cuisine": "sandwich",
          "name": "Subway",
          "opening_hours": "Mo-Fr 07:00-20:00; Sa-Su 10:00-19:00",
          "phone": "+1 209-467-7101",
          "takeaway": "yes",
          "website": "https://restaurants.subway.com/united-states/ca/stockton/46-n-sutter-st"
        }
      }
    },
    {
      "id": "3864112464",
      "name": "Burger King",
      "lat": 37.9374941,
      "lng": -121.2961311,
      "category": "fast_food",
      "external_url": "https://www.bk.com/store-locator/store/restaurant_1200",
      "description": null,
      "open_status": "unknown",
      "confidence": "low",
      "raw": {
        "type": "node",
        "id": 3864112464,
        "lat": 37.9374941,
        "lon": -121.2961311,
        "tags": {
          "addr:city": "Stockton",
          "addr:housenumber": "619",
          "addr:postcode": "95206-1709",
          "addr:state": "CA",
          "addr:street": "West Charter Way",
          "amenity": "fast_food",
          "brand": "Burger King",
          "brand:wikidata": "Q177054",
          "cuisine": "burger",
          "delivery": "yes",
          "drive_through": "yes",
          "internet_access": "wlan",
          "name": "Burger King",
          "opening_hours": "24/7",
          "phone": "+1 209-463-2003",
          "ref": "2268",
          "takeaway": "yes",
          "website": "https://www.bk.com/store-locator/store/restaurant_1200"
        }
      }
    },
    {
      "id": "3864112467",
      "name": "Jack in the Box",
      "lat": 37.9367577,
      "lng": -121.299302,
      "category": "fast_food",
      "external_url": "https://locations.jackinthebox.com/us/ca/stockton/733-w-charter-wy",
      "description": null,
      "open_status": "unknown",
      "confidence": "low",
      "raw": {
        "type": "node",
        "id": 3864112467,
        "lat": 37.9367577,
        "lon": -121.299302,
        "tags": {
          "addr:city": "Stockton",
          "addr:housenumber": "733",
          "addr:postcode": "95206",
          "addr:state": "CA",
          "addr:street": "West Charter Way",
          "amenity": "fast_food",
          "brand": "Jack in the Box",
          "brand:wikidata": "Q1538507",
          "cuisine": "burger",
          "drive_through": "yes",
          "name": "Jack in the Box",
          "phone": "+1 209-800-3630",
          "takeaway": "yes",
          "website": "https://locations.jackinthebox.com/us/ca/stockton/733-w-charter-wy"
        }
      }
    },
    {
      "id": "3864112658",
      "name": "Eddie's Pizza",
      "lat": 37.9383096,
      "lng": -121.2861853,
      "category": "restaurant",
      "external_url": null,
      "description": null,
      "open_status": "unknown",
      "confidence": "low",
      "raw": {
        "type": "node",
        "id": 3864112658,
        "lat": 37.9383096,
        "lon": -121.2861853,
        "tags": {
          "amenity": "restaurant",
          "name": "Eddie's Pizza"
        }
      }
    },
    {
      "id": "3864112660",
      "name": "McDonald's",
      "lat": 37.9376053,
      "lng": -121.2955275,
      "category": "fast_food",
      "external_url": "https://www.mcdonalds.com/us/en-us/location/4111.html",
      "description": null,
      "open_status": "unknown",
      "confidence": "low",
      "raw": {
        "type": "node",
        "id": 3864112660,
        "lat": 37.9376053,
        "lon": -121.2955275,
        "tags": {
          "addr:city": "Stockton",
          "addr:housenumber": "611",
          "addr:postcode": "95206-1709",
          "addr:state": "CA",
          "addr:street": "West Charter Way",
          "amenity": "fast_food",
          "brand": "McDonald's",
          "brand:wikidata": "Q38076",
          "cuisine": "burger",
          "drive_through": "yes",
          "internet_access": "wlan",
          "name": "McDonald's",
          "opening_hours": "05:00-23:00",
          "phone": "+1 209-762-3500",
          "takeaway": "yes",
          "website": "https://www.mcdonalds.com/us/en-us/location/4111.html"
        }
      }
    },
    {
      "id": "4047495872",
      "name": "KFC",
      "lat": 38.0208946,
      "lng": -121.357565,
      "category": "fast_food",
      "external_url": "https://locations.kfc.com/ca/stockton/3264-west-hammer-lane",
      "description": null,
      "open_status": "unknown",
      "confidence": "low",
      "raw": {
        "type": "node",
        "id": 4047495872,
        "lat": 38.0208946,
        "lon": -121.357565,
        "tags": {
          "addr:city": "Stockton",
          "addr:housenumber": "3264",
          "addr:postcode": "95209",
          "addr:state": "CA",
          "addr:street": "West Hammer Lane",
          "alt_name": "Kentucky Fried Chicken",
          "amenity": "fast_food",
          "brand": "KFC",
          "brand:wikidata": "Q524757",
          "cuisine": "chicken",
          "name": "KFC",
          "takeaway": "yes",
          "website": "https://locations.kfc.com/ca/stockton/3264-west-hammer-lane"
        }
      }
    },
    {
      "id": "4052675545",
      "name": "KFC",
      "lat": 37.9388459,
      "lng": -121.2852163,
      "category": "fast_food",
      "external_url": "https://locations.kfc.com/ca/stockton/134-east-charter-way",
      "description": null,
      "open_status": "unknown",
      "confidence": "low",
      "raw": {
        "type": "node",
        "id": 4052675545,
        "lat": 37.9388459,
        "lon": -121.2852163,
        "tags": {
          "addr:city": "Stockton",
          "addr:housenumber": "134",
          "addr:postcode": "95206",
          "addr:state": "CA",
          "addr:street": "East Charter Way",
          "alt_name": "Kentucky Fried Chicken",
          "amenity": "fast_food",
          "brand": "KFC",
          "brand:wikidata": "Q524757",
          "cuisine": "chicken",
          "name": "KFC",
          "takeaway": "yes",
          "website": "https://locations.kfc.com/ca/stockton/134-east-charter-way"
        }
      }
    },
    {
      "id": "4052675546",
      "name": "A&W",
      "lat": 37.9388797,
      "lng": -121.285015,
      "category": "fast_food",
      "external_url": "https://awrestaurants.com/locations/california/stockton/134-e-martin-luther-king-jr-blvd/",
      "description": null,
      "open_status": "unknown",
      "confidence": "low",
      "raw": {
        "type": "node",
        "id": 4052675546,
        "lat": 37.9388797,
        "lon": -121.285015,
        "tags": {
          "addr:city": "Stockton",
          "addr:housenumber": "134",
          "addr:postcode": "95206",
          "addr:state": "CA",
          "addr:street": "East Charter Way",
          "amenity": "fast_food",
          "brand": "A&W",
          "brand:wikidata": "Q277641",
          "cuisine": "burger",
          "name": "A&W",
          "takeaway": "yes",
          "website": "https://awrestaurants.com/locations/california/stockton/134-e-martin-luther-king-jr-blvd/"
        }
      }
    },
    {
      "id": "4052698072",
      "name": "A&W",
      "lat": 37.9878652,
      "lng": -121.244525,
      "category": "fast_food",
      "external_url": "https://awrestaurants.com/locations/california/stockton/4450-east-waterloo-rd/",
      "description": null,
      "open_status": "unknown",
      "confidence": "low",
      "raw": {
        "type": "node",
        "id": 4052698072,
        "lat": 37.9878652,
        "lon": -121.244525,
        "tags": {
          "addr:city": "Stockton",
          "addr:housenumber": "4450",
          "addr:postcode": "95215",
          "addr:state": "CA",
          "addr:street": "Waterloo Road",
          "amenity": "fast_food",
          "brand": "A&W",
          "brand:wikidata": "Q277641",
          "cuisine": "burger",
          "name": "A&W",
          "takeaway": "yes",
          "website": "https://awrestaurants.com/locations/california/stockton/4450-east-waterloo-rd/"
        }
      }
    },
    {
      "id": "4052698073",
      "name": "KFC",
      "lat": 37.9877563,
      "lng": -121.2444581,
      "category": "fast_food",
      "external_url": "https://locations.kfc.com/ca/stockton/4450-east-waterloo-rd",
      "description": null,
      "open_status": "unknown",
      "confidence": "low",
      "raw": {
        "type": "node",
        "id": 4052698073,
        "lat": 37.9877563,
        "lon": -121.2444581,
        "tags": {
          "addr:city": "Stockton",
          "addr:housenumber": "4450",
          "addr:postcode": "95215",
          "addr:state": "CA",
          "addr:street": "Waterloo Road",
          "alt_name": "Kentucky Fried Chicken",
          "amenity": "fast_food",
          "brand": "KFC",
          "brand:wikidata": "Q524757",
          "cuisine": "chicken",
          "name": "KFC",
          "takeaway": "yes",
          "website": "https://locations.kfc.com/ca/stockton/4450-east-waterloo-rd"
        }
      }
    },
    {
      "id": "4054522929",
      "name": "A&W",
      "lat": 38.0214858,
      "lng": -121.270974,
      "category": "fast_food",
      "external_url": "https://awrestaurants.com/locations/california/stockton/3519-east-hammer-lane/",
      "description": null,
      "open_status": "unknown",
      "confidence": "low",
      "raw": {
        "type": "node",
        "id": 4054522929,
        "lat": 38.0214858,
        "lon": -121.270974,
        "tags": {
          "addr:city": "Stockton",
          "addr:housenumber": "3519",
          "addr:postcode": "95212",
          "addr:state": "CA",
          "addr:street": "East Hammer Lane",
          "amenity": "fast_food",
          "brand": "A&W",
          "brand:wikidata": "Q277641",
          "cuisine": "burger",
          "name": "A&W",
          "takeaway": "yes",
          "website": "https://awrestaurants.com/locations/california/stockton/3519-east-hammer-lane/"
        }
      }
    },
    {
      "id": "4054522930",
      "name": "KFC",
      "lat": 38.0214931,
      "lng": -121.2708009,
      "category": "fast_food",
      "external_url": "https://locations.kfc.com/ca/stockton/3519-east-hammer-lane",
      "description": null,
      "open_status": "unknown",
      "confidence": "low",
      "raw": {
        "type": "node",
        "id": 4054522930,
        "lat": 38.0214931,
        "lon": -121.2708009,
        "tags": {
          "addr:city": "Stockton",
          "addr:housenumber": "3519",
          "addr:postcode": "95212",
          "addr:state": "CA",
          "addr:street": "East Hammer Lane",
          "alt_name": "Kentucky Fried Chicken",
          "amenity": "fast_food",
          "brand": "KFC",
          "brand:wikidata": "Q524757",
          "cuisine": "chicken",
          "name": "KFC",
          "takeaway": "yes",
          "website": "https://locations.kfc.com/ca/stockton/3519-east-hammer-lane"
        }
      }
    },
    {
      "id": "4093400971",
      "name": "Eric's New York Style Pizza",
      "lat": 37.9865853,
      "lng": -121.301582,
      "category": "restaurant",
      "external_url": null,
      "description": null,
      "open_status": "unknown",
      "confidence": "low",
      "raw": {
        "type": "node",
        "id": 4093400971,
        "lat": 37.9865853,
        "lon": -121.301582,
        "tags": {
          "amenity": "restaurant",
          "cuisine": "pizza",
          "name": "Eric's New York Style Pizza"
        }
      }
    },
    {
      "id": "4093400981",
      "name": "McDonald's",
      "lat": 38.0021134,
      "lng": -121.292234,
      "category": "fast_food",
      "external_url": "https://www.mcdonalds.com/us/en-us/location/11797.html",
      "description": null,
      "open_status": "unknown",
      "confidence": "low",
      "raw": {
        "type": "node",
        "id": 4093400981,
        "lat": 38.0021134,
        "lon": -121.292234,
        "tags": {
          "addr:city": "Stockton",
          "addr:housenumber": "1049",
          "addr:postcode": "95210-3544",
          "addr:state": "CA",
          "addr:street": "East March Lane",
          "amenity": "fast_food",
          "brand": "McDonald's",
          "brand:wikidata": "Q38076",
          "cuisine": "burger",
          "drive_through": "yes",
          "internet_access": "wlan",
          "name": "McDonald's",
          "opening_hours": "05:00-24:00",
          "phone": "+1 209-307-6533",
          "takeaway": "yes",
          "website": "https://www.mcdonalds.com/us/en-us/location/11797.html"
        }
      }
    },
    {
      "id": "4093403711",
      "name": "David's Pizza",
      "lat": 38.009744,
      "lng": -121.3233786,
      "category": "restaurant",
      "external_url": null,
      "description": null,
      "open_status": "unknown",
      "confidence": "low",
      "raw": {
        "type": "node",
        "id": 4093403711,
        "lat": 38.009744,
        "lon": -121.3233786,
        "tags": {
          "amenity": "restaurant",
          "name": "David's Pizza"
        }
      }
    },
    {
      "id": "4093403712",
      "name": "Finnigan's",
      "lat": 38.0050284,
      "lng": -121.3176388,
      "category": "unknown",
      "external_url": null,
      "description": null,
      "open_status": "unknown",
      "confidence": "low",
      "raw": {
        "type": "node",
        "id": 4093403712,
        "lat": 38.0050284,
        "lon": -121.3176388,
        "tags": {
          "amenity": "pub",
          "name": "Finnigan's"
        }
      }
    },
    {
      "id": "4093403714",
      "name": "Subway",
      "lat": 37.999261,
      "lng": -121.3252778,
      "category": "fast_food",
      "external_url": "https://restaurants.subway.com/united-states/ca/stockton/5620-n-pershing-avenue",
      "description": null,
      "open_status": "unknown",
      "confidence": "low",
      "raw": {
        "type": "node",
        "id": 4093403714,
        "lat": 37.999261,
        "lon": -121.3252778,
        "tags": {
          "addr:city": "Stockton",
          "addr:housenumber": "5620",
          "addr:postcode": "95207",
          "addr:state": "CA",
          "addr:street": "North Pershing Avenue",
          "addr:unit": "B",
          "amenity": "fast_food",
          "brand": "Subway",
          "brand:wikidata": "Q244457",
          "cuisine": "sandwich",
          "name": "Subway",
          "opening_hours": "Mo-Fr 09:00-20:00; Sa 10:00-19:00; Su 10:00-18:00",
          "phone": "+1 209-955-0895",
          "takeaway": "yes",
          "website": "https://restaurants.subway.com/united-states/ca/stockton/5620-n-pershing-avenue"
        }
      }
    },
    {
      "id": "4173373547",
      "name": "Subway",
      "lat": 37.9340032,
      "lng": -121.3116209,
      "category": "fast_food",
      "external_url": "https://restaurants.subway.com/united-states/ca/stockton/1789-charter-way",
      "description": null,
      "open_status": "unknown",
      "confidence": "low",
      "raw": {
        "type": "node",
        "id": 4173373547,
        "lat": 37.9340032,
        "lon": -121.3116209,
        "tags": {
          "addr:city": "Stockton",
          "addr:housenumber": "1789",
          "addr:postcode": "95206",
          "addr:state": "CA",
          "addr:street": "Charter Way",
          "amenity": "fast_food",
          "brand": "Subway",
          "brand:wikidata": "Q244457",
          "cuisine": "sandwich",
          "name": "Subway",
          "opening_hours": "Mo-Fr 08:00-22:00; Sa 08:00-20:00; Su 09:00-20:00",
          "phone": "+1 209-466-3401",
          "takeaway": "yes",
          "website": "https://restaurants.subway.com/united-states/ca/stockton/1789-charter-way"
        }
      }
    },
    {
      "id": "4173373549",
      "name": "Bar Lupita's",
      "lat": 37.9324729,
      "lng": -121.3125391,
      "category": "unknown",
      "external_url": null,
      "description": null,
      "open_status": "unknown",
      "confidence": "low",
      "raw": {
        "type": "node",
        "id": 4173373549,
        "lat": 37.9324729,
        "lon": -121.3125391,
        "tags": {
          "amenity": "pub",
          "name": "Bar Lupita's"
        }
      }
    },
    {
      "id": "4173373550",
      "name": "Subway",
      "lat": 37.9113124,
      "lng": -121.2923744,
      "category": "fast_food",
      "external_url": "https://restaurants.subway.com/united-states/ca/stockton/3526-manthey-rd",
      "description": null,
      "open_status": "unknown",
      "confidence": "low",
      "raw": {
        "type": "node",
        "id": 4173373550,
        "lat": 37.9113124,
        "lon": -121.2923744,
        "tags": {
          "addr:city": "Stockton",
          "addr:housenumber": "3526",
          "addr:postcode": "95206",
          "addr:state": "CA",
          "addr:street": "Manthey Road",
          "addr:unit": "D",
          "amenity": "fast_food",
          "brand": "Subway",
          "brand:wikidata": "Q244457",
          "cuisine": "sandwich",
          "name": "Subway",
          "opening_hours": "08:00-21:00",
          "phone": "+1 209-983-5021",
          "takeaway": "yes",
          "website": "https://restaurants.subway.com/united-states/ca/stockton/3526-manthey-rd"
        }
      }
    },
    {
      "id": "4611578287",
      "name": "Papa Murphy's",
      "lat": 38.0208769,
      "lng": -121.324705,
      "category": "fast_food",
      "external_url": null,
      "description": null,
      "open_status": "unknown",
      "confidence": "low",
      "raw": {
        "type": "node",
        "id": 4611578287,
        "lat": 38.0208769,
        "lon": -121.324705,
        "tags": {
          "amenity": "fast_food",
          "brand": "Papa Murphy's",
          "brand:wikidata": "Q7132349",
          "cuisine": "pizza",
          "name": "Papa Murphy's",
          "official_name": "Papa Murphy's Take 'N' Bake Pizza",
          "takeaway": "only"
        }
      }
    },
    {
      "id": "4611578311",
      "name": "Wingstop",
      "lat": 38.0212882,
      "lng": -121.3227394,
      "category": "fast_food",
      "external_url": null,
      "description": null,
      "open_status": "unknown",
      "confidence": "low",
      "raw": {
        "type": "node",
        "id": 4611578311,
        "lat": 38.0212882,
        "lon": -121.3227394,
        "tags": {
          "amenity": "fast_food",
          "brand": "Wingstop",
          "brand:wikidata": "Q8025339",
          "cuisine": "wings",
          "name": "Wingstop",
          "takeaway": "yes"
        }
      }
    },
    {
      "id": "4611578315",
      "name": "UJ's Restaurant",
      "lat": 38.0189672,
      "lng": -121.3225593,
      "category": "restaurant",
      "external_url": null,
      "description": null,
      "open_status": "unknown",
      "confidence": "low",
      "raw": {
        "type": "node",
        "id": 4611578315,
        "lat": 38.0189672,
        "lon": -121.3225593,
        "tags": {
          "amenity": "restaurant",
          "name": "UJ's Restaurant"
        }
      }
    },
    {
      "id": "4611578319",
      "name": "Carl's Jr.",
      "lat": 38.0171673,
      "lng": -121.3225205,
      "category": "fast_food",
      "external_url": "https://locations.carlsjr.com/ca/stockton/7432-pacific-avenue",
      "description": null,
      "open_status": "unknown",
      "confidence": "low",
      "raw": {
        "type": "node",
        "id": 4611578319,
        "lat": 38.0171673,
        "lon": -121.3225205,
        "tags": {
          "addr:city": "Stockton",
          "addr:housenumber": "7432",
          "addr:postcode": "95207",
          "addr:state": "CA",
          "addr:street": "Pacific Avenue",
          "amenity": "fast_food",
          "brand": "Carl's Jr.",
          "brand:wikidata": "Q1043486",
          "cuisine": "burger",
          "drive_through": "yes",
          "name": "Carl's Jr.",
          "phone": "+1 209-957-2000",
          "ref": "1100494",
          "takeaway": "yes",
          "website": "https://locations.carlsjr.com/ca/stockton/7432-pacific-avenue"
        }
      }
    },
    {
      "id": "4611578326",
      "name": "Subway",
      "lat": 38.0203272,
      "lng": -121.3197194,
      "category": "fast_food",
      "external_url": "https://restaurants.subway.com/united-states/ca/stockton/616-west-hammer-lane",
      "description": null,
      "open_status": "unknown",
      "confidence": "low",
      "raw": {
        "type": "node",
        "id": 4611578326,
        "lat": 38.0203272,
        "lon": -121.3197194,
        "tags": {
          "addr:city": "Stockton",
          "addr:housenumber": "616",
          "addr:postcode": "95210",
          "addr:state": "CA",
          "addr:street": "West Hammer Lane",
          "addr:unit": "D",
          "amenity": "fast_food",
          "brand": "Subway",
          "brand:wikidata": "Q244457",
          "cuisine": "sandwich",
          "name": "Subway",
          "opening_hours": "09:00-21:00",
          "phone": "+1 209-474-5959",
          "takeaway": "yes",
          "website": "https://restaurants.subway.com/united-states/ca/stockton/616-west-hammer-lane"
        }
      }
    },
    {
      "id": "4611578403",
      "name": "Oriental Chef",
      "lat": 38.018816,
      "lng": -121.320141,
      "category": "restaurant",
      "external_url": null,
      "description": null,
      "open_status": "unknown",
      "confidence": "low",
      "raw": {
        "type": "node",
        "id": 4611578403,
        "lat": 38.018816,
        "lon": -121.320141,
        "tags": {
          "amenity": "restaurant",
          "cuisine": "chinese",
          "name": "Oriental Chef"
        }
      }
    },
    {
      "id": "4611578519",
      "name": "China Express",
      "lat": 38.0224545,
      "lng": -121.322069,
      "category": "restaurant",
      "external_url": null,
      "description": null,
      "open_status": "unknown",
      "confidence": "low",
      "raw": {
        "type": "node",
        "id": 4611578519,
        "lat": 38.0224545,
        "lon": -121.322069,
        "tags": {
          "amenity": "restaurant",
          "cuisine": "chinese",
          "name": "China Express"
        }
      }
    },
    {
      "id": "6199573509",
      "name": "Starbucks",
      "lat": 37.9838645,
      "lng": -121.3466111,
      "category": "cafe",
      "external_url": "https://www.starbucks.com/store-locator/store/8093/march-i-5-stockton-2866-w-march-lane-stockton-ca-952198216-us",
      "description": null,
      "open_status": "unknown",
      "confidence": "low",
      "raw": {
        "type": "node",
        "id": 6199573509,
        "lat": 37.9838645,
        "lon": -121.3466111,
        "tags": {
          "addr:city": "Stockton",
          "addr:housenumber": "2866",
          "addr:postcode": "95219",
          "addr:state": "CA",
          "addr:street": "West March Lane",
          "addr:suite": "B",
          "amenity": "cafe",
          "branch": "March & I-5 - Stockton",
          "brand": "Starbucks",
          "brand:wikidata": "Q37158",
          "cuisine": "coffee_shop",
          "drive_through": "yes",
          "name": "Starbucks",
          "official_name": "Starbucks Coffee",
          "outdoor_seating": "yes",
          "phone": "+1 209-472-0637",
          "ref": "8093",
          "takeaway": "yes",
          "website": "https://www.starbucks.com/store-locator/store/8093/march-i-5-stockton-2866-w-march-lane-stockton-ca-952198216-us"
        }
      }
    },
    {
      "id": "6215275790",
      "name": "Domino's",
      "lat": 37.984776,
      "lng": -121.3344057,
      "category": "fast_food",
      "external_url": "https://pizza.dominos.com/california/stockton/2233-grand-canal-blvd",
      "description": null,
      "open_status": "unknown",
      "confidence": "low",
      "raw": {
        "type": "node",
        "id": 6215275790,
        "lat": 37.984776,
        "lon": -121.3344057,
        "tags": {
          "addr:city": "Stockton",
          "addr:housenumber": "2233",
          "addr:postcode": "95207",
          "addr:state": "CA",
          "addr:street": "Grand Canal Boulevard",
          "addr:unit": "202",
          "amenity": "fast_food",
          "brand": "Domino's",
          "brand:wikidata": "Q839466",
          "cuisine": "pizza",
          "name": "Domino's",
          "opening_hours": "Mo-Th 10:00-24:00; Fr-Sa 10:00-01:00; Su 10:00-24:00",
          "phone": "+1 209-451-0050",
          "ref": "8691",
          "takeaway": "yes",
          "website": "https://pizza.dominos.com/california/stockton/2233-grand-canal-blvd"
        }
      }
    },
    {
      "id": "6215275794",
      "name": "Bayon Restaurant",
      "lat": 37.9850852,
      "lng": -121.3335078,
      "category": "restaurant",
      "external_url": null,
      "description": null,
      "open_status": "unknown",
      "confidence": "low",
      "raw": {
        "type": "node",
        "id": 6215275794,
        "lat": 37.9850852,
        "lon": -121.3335078,
        "tags": {
          "addr:city": "Stockton",
          "addr:housenumber": "2233",
          "addr:postcode": "95207",
          "addr:state": "CA",
          "addr:street": "Grand Canal Boulevard",
          "addr:unit": "119",
          "amenity": "restaurant",
          "cuisine": "asian;cambodian",
          "name": "Bayon Restaurant"
        }
      }
    },
    {
      "id": "6235134545",
      "name": "GK Mongolian BBQ",
      "lat": 37.9849379,
      "lng": -121.3333802,
      "category": "restaurant",
      "external_url": "https://www.gkmongolianbbq.com/",
      "description": null,
      "open_status": "unknown",
      "confidence": "low",
      "raw": {
        "type": "node",
        "id": 6235134545,
        "lat": 37.9849379,
        "lon": -121.3333802,
        "tags": {
          "addr:city": "Stockton",
          "addr:housenumber": "2233",
          "addr:postcode": "95207",
          "addr:state": "CA",
          "addr:street": "Grand Canal Boulevard",
          "addr:unit": "117",
          "amenity": "restaurant",
          "cuisine": "mongolian_grill",
          "name": "GK Mongolian BBQ",
          "website": "https://www.gkmongolianbbq.com/"
        }
      }
    },
    {
      "id": "6236225675",
      "name": "La Boulangerie",
      "lat": 37.9839457,
      "lng": -121.3362164,
      "category": "restaurant",
      "external_url": null,
      "description": null,
      "open_status": "unknown",
      "confidence": "low",
      "raw": {
        "type": "node",
        "id": 6236225675,
        "lat": 37.9839457,
        "lon": -121.3362164,
        "tags": {
          "addr:city": "Stockton",
          "addr:housenumber": "2324",
          "addr:postcode": "95207",
          "addr:state": "CA",
          "addr:street": "Grand Canal Boulevard",
          "addr:unit": "1",
          "amenity": "restaurant",
          "name": "La Boulangerie"
        }
      }
    },
    {
      "id": "6236225678",
      "name": "Basil's Spirit's & Sandwiches",
      "lat": 37.9837956,
      "lng": -121.336072,
      "category": "bar",
      "external_url": null,
      "description": null,
      "open_status": "unknown",
      "confidence": "low",
      "raw": {
        "type": "node",
        "id": 6236225678,
        "lat": 37.9837956,
        "lon": -121.336072,
        "tags": {
          "addr:city": "Stockton",
          "addr:housenumber": "2324",
          "addr:postcode": "95207",
          "addr:state": "CA",
          "addr:street": "Grand Canal Boulevard",
          "addr:unit": "4",
          "amenity": "bar",
          "food": "sandwiches",
          "name": "Basil's Spirit's & Sandwiches"
        }
      }
    },
    {
      "id": "6653177906",
      "name": "Pizza Guys",
      "lat": 37.9695745,
      "lng": -121.2699966,
      "category": "restaurant",
      "external_url": null,
      "description": null,
      "open_status": "unknown",
      "confidence": "low",
      "raw": {
        "type": "node",
        "id": 6653177906,
        "lat": 37.9695745,
        "lon": -121.2699966,
        "tags": {
          "amenity": "restaurant",
          "cuisine": "pizza",
          "name": "Pizza Guys"
        }
      }
    },
    {
      "id": "6711248289",
      "name": "Bob’s",
      "lat": 38.0030192,
      "lng": -121.3691345,
      "category": "restaurant",
      "external_url": null,
      "description": null,
      "open_status": "unknown",
      "confidence": "low",
      "raw": {
        "type": "node",
        "id": 6711248289,
        "lat": 38.0030192,
        "lon": -121.3691345,
        "tags": {
          "amenity": "restaurant",
          "name": "Bob’s"
        }
      }
    },
    {
      "id": "6958935285",
      "name": "Mimosas Corner",
      "lat": 37.9521618,
      "lng": -121.2894597,
      "category": "restaurant",
      "external_url": null,
      "description": null,
      "open_status": "unknown",
      "confidence": "low",
      "raw": {
        "type": "node",
        "id": 6958935285,
        "lat": 37.9521618,
        "lon": -121.2894597,
        "tags": {
          "amenity": "restaurant",
          "name": "Mimosas Corner"
        }
      }
    },
    {
      "id": "8765718292",
      "name": "Starbucks",
      "lat": 37.9873838,
      "lng": -121.24488,
      "category": "cafe",
      "external_url": "https://www.starbucks.com/store-locator/store/11621/hwy-99-waterloo-stockton-4426-east-waterloo-road-stockton-ca-952154041-us",
      "description": null,
      "open_status": "unknown",
      "confidence": "low",
      "raw": {
        "type": "node",
        "id": 8765718292,
        "lat": 37.9873838,
        "lon": -121.24488,
        "tags": {
          "addr:city": "Stockton",
          "addr:housenumber": "4426",
          "addr:postcode": "95215",
          "addr:state": "CA",
          "addr:street": "East Waterloo Road",
          "amenity": "cafe",
          "branch": "Highway 99 & Waterloo - Stockton",
          "brand": "Starbucks",
          "brand:wikidata": "Q37158",
          "cuisine": "coffee_shop",
          "drive_through": "yes",
          "name": "Starbucks",
          "official_name": "Starbucks Coffee",
          "phone": "+1 209-931-4576",
          "ref": "11621",
          "takeaway": "yes",
          "toilets": "yes",
          "website": "https://www.starbucks.com/store-locator/store/11621/hwy-99-waterloo-stockton-4426-east-waterloo-road-stockton-ca-952154041-us"
        }
      }
    },
    {
      "id": "9333723140",
      "name": "Fire Wings",
      "lat": 38.0102573,
      "lng": -121.320929,
      "category": "restaurant",
      "external_url": null,
      "description": null,
      "open_status": "unknown",
      "confidence": "low",
      "raw": {
        "type": "node",
        "id": 9333723140,
        "lat": 38.0102573,
        "lon": -121.320929,
        "tags": {
          "addr:city": "Stockton",
          "addr:housenumber": "6625",
          "addr:postcode": "95207",
          "addr:state": "CA",
          "addr:street": "Pacific Avenue",
          "amenity": "restaurant",
          "cuisine": "chicken;wings",
          "name": "Fire Wings"
        }
      }
    },
    {
      "id": "9333723141",
      "name": "85°C",
      "lat": 38.010201,
      "lng": -121.322437,
      "category": "cafe",
      "external_url": null,
      "description": null,
      "open_status": "unknown",
      "confidence": "low",
      "raw": {
        "type": "node",
        "id": 9333723141,
        "lat": 38.010201,
        "lon": -121.322437,
        "tags": {
          "addr:city": "Stockton",
          "addr:housenumber": "878",
          "addr:postcode": "95207",
          "addr:state": "CA",
          "addr:street": "West Benjamin Holt Drive",
          "alt_name": "85C",
          "amenity": "cafe",
          "branch": "Bakery Cafe",
          "brand": "85°C",
          "brand:wikidata": "Q4644852",
          "cuisine": "coffee_shop;chinese",
          "name": "85°C",
          "shop": "bakery",
          "takeaway": "yes"
        }
      }
    },
    {
      "id": "9333723142",
      "name": "Ramen 101",
      "lat": 38.0103235,
      "lng": -121.322066,
      "category": "restaurant",
      "external_url": null,
      "description": null,
      "open_status": "unknown",
      "confidence": "low",
      "raw": {
        "type": "node",
        "id": 9333723142,
        "lat": 38.0103235,
        "lon": -121.322066,
        "tags": {
          "addr:city": "Stockton",
          "addr:housenumber": "866",
          "addr:postcode": "95207",
          "addr:state": "CA",
          "addr:street": "West Benjamin Holt Drive",
          "amenity": "restaurant",
          "cuisine": "noodle",
          "name": "Ramen 101"
        }
      }
    },
    {
      "id": "9333723143",
      "name": "Squeeze Burger and Brew",
      "lat": 38.0101746,
      "lng": -121.3217303,
      "category": "fast_food",
      "external_url": null,
      "description": null,
      "open_status": "unknown",
      "confidence": "low",
      "raw": {
        "type": "node",
        "id": 9333723143,
        "lat": 38.0101746,
        "lon": -121.3217303,
        "tags": {
          "addr:city": "Stockton",
          "addr:housenumber": "856",
          "addr:postcode": "95207",
          "addr:state": "CA",
          "addr:street": "West Benjamin Holt Drive",
          "amenity": "fast_food",
          "cuisine": "burger",
          "drive_through": "no",
          "indoor_seating": "yes",
          "name": "Squeeze Burger and Brew",
          "outdoor_seating": "yes"
        }
      }
    },
    {
      "id": "9333723160",
      "name": "Honey Baked Ham",
      "lat": 38.0101621,
      "lng": -121.3196964,
      "category": "fast_food",
      "external_url": null,
      "description": null,
      "open_status": "unknown",
      "confidence": "low",
      "raw": {
        "type": "node",
        "id": 9333723160,
        "lat": 38.0101621,
        "lon": -121.3196964,
        "tags": {
          "addr:city": "Stockton",
          "addr:housenumber": "6530",
          "addr:postcode": "95207",
          "addr:state": "CA",
          "addr:street": "Pacific Avenue",
          "addr:unit": "A",
          "alt_name": "HoneyBaked Ham",
          "amenity": "fast_food",
          "brand": "Honey Baked Ham",
          "brand:wikidata": "Q5893363",
          "contact:website": "https://www.honeybaked.com/stores/8923",
          "cuisine": "american",
          "name": "Honey Baked Ham",
          "official_name": "The Honey Baked Ham Company",
          "takeaway": "yes"
        }
      }
    },
    {
      "id": "9333723161",
      "name": "Dila Tea House",
      "lat": 38.0072777,
      "lng": -121.31867,
      "category": "cafe",
      "external_url": null,
      "description": null,
      "open_status": "unknown",
      "confidence": "low",
      "raw": {
        "type": "node",
        "id": 9333723161,
        "lat": 38.0072777,
        "lon": -121.31867,
        "tags": {
          "addr:city": "Stockton",
          "addr:housenumber": "6248",
          "addr:postcode": "95207",
          "addr:state": "CA",
          "addr:street": "Pacific Avenue",
          "amenity": "cafe",
          "cuisine": "bubble_tea",
          "name": "Dila Tea House",
          "not:brand:wikidata": "Q630866",
          "takeaway": "yes"
        }
      }
    },
    {
      "id": "9333723162",
      "name": "Tasty Pot",
      "lat": 38.0073462,
      "lng": -121.318692,
      "category": "restaurant",
      "external_url": null,
      "description": null,
      "open_status": "unknown",
      "confidence": "low",
      "raw": {
        "type": "node",
        "id": 9333723162,
        "lat": 38.0073462,
        "lon": -121.318692,
        "tags": {
          "addr:city": "Stockton",
          "addr:housenumber": "6252",
          "addr:postcode": "95207",
          "addr:state": "CA",
          "addr:street": "Pacific Avenue",
          "amenity": "restaurant",
          "cuisine": "hotpot",
          "name": "Tasty Pot"
        }
      }
    },
    {
      "id": "9333723163",
      "name": "Mama's Phở & Sandwiches",
      "lat": 38.0224623,
      "lng": -121.322439,
      "category": "restaurant",
      "external_url": null,
      "description": null,
      "open_status": "unknown",
      "confidence": "low",
      "raw": {
        "type": "node",
        "id": 9333723163,
        "lat": 38.0224623,
        "lon": -121.322439,
        "tags": {
          "addr:city": "Stockton",
          "addr:housenumber": "8014",
          "addr:postcode": "95210",
          "addr:state": "CA",
          "addr:street": "North Lower Sacramento Road",
          "amenity": "restaurant",
          "cuisine": "noodle",
          "name": "Mama's Phở & Sandwiches",
          "phone": "+1-209-473-7154"
        }
      }
    },
    {
      "id": "9333723165",
      "name": "Jamba",
      "lat": 38.0574172,
      "lng": -121.3751673,
      "category": "fast_food",
      "external_url": "https://locations.jamba.com/ca/stockton/10952-trinity-pkwy",
      "description": null,
      "open_status": "unknown",
      "confidence": "low",
      "raw": {
        "type": "node",
        "id": 9333723165,
        "lat": 38.0574172,
        "lon": -121.3751673,
        "tags": {
          "addr:city": "Stockton",
          "addr:housenumber": "10952",
          "addr:postcode": "95219",
          "addr:state": "CA",
          "addr:street": "Trinity Parkway",
          "addr:unit": "H",
          "alt_name": "Jamba Juice",
          "amenity": "fast_food",
          "branch": "Park West Place",
          "brand": "Jamba",
          "brand:wikidata": "Q3088784",
          "cuisine": "juice",
          "name": "Jamba",
          "opening_hours": "08:00-20:00",
          "phone": "+1 209-475-9770",
          "takeaway": "yes",
          "website": "https://locations.jamba.com/ca/stockton/10952-trinity-pkwy"
        }
      }
    },
    {
      "id": "9333723166",
      "name": "Ono Hawaiian BBQ",
      "lat": 38.0574013,
      "lng": -121.3752707,
      "category": "restaurant",
      "external_url": null,
      "description": null,
      "open_status": "unknown",
      "confidence": "low",
      "raw": {
        "type": "node",
        "id": 9333723166,
        "lat": 38.0574013,
        "lon": -121.3752707,
        "tags": {
          "amenity": "restaurant",
          "brand": "Ono Hawaiian BBQ",
          "brand:wikidata": "Q99526964",
          "cuisine": "barbecue;hawaiian",
          "name": "Ono Hawaiian BBQ"
        }
      }
    },
    {
      "id": "9333723167",
      "name": "Subway",
      "lat": 38.0574117,
      "lng": -121.3753699,
      "category": "fast_food",
      "external_url": "https://restaurants.subway.com/united-states/ca/stockton/10952-e-trinity-pkwy",
      "description": null,
      "open_status": "unknown",
      "confidence": "low",
      "raw": {
        "type": "node",
        "id": 9333723167,
        "lat": 38.0574117,
        "lon": -121.3753699,
        "tags": {
          "addr:city": "Stockton",
          "addr:housenumber": "10952",
          "addr:postcode": "95219",
          "addr:state": "CA",
          "addr:street": "Trinity Parkway",
          "addr:unit": "E",
          "amenity": "fast_food",
          "brand": "Subway",
          "brand:wikidata": "Q244457",
          "cuisine": "sandwich",
          "name": "Subway",
          "opening_hours": "Mo-Th 07:00-21:00; Fr-Sa 07:00-21:30; Su 07:00-21:00",
          "phone": "+1 209-476-9932",
          "takeaway": "yes",
          "website": "https://restaurants.subway.com/united-states/ca/stockton/10952-e-trinity-pkwy"
        }
      }
    },
    {
      "id": "9333723170",
      "name": "Round Table Pizza",
      "lat": 38.0573782,
      "lng": -121.3756997,
      "category": "restaurant",
      "external_url": null,
      "description": null,
      "open_status": "unknown",
      "confidence": "low",
      "raw": {
        "type": "node",
        "id": 9333723170,
        "lat": 38.0573782,
        "lon": -121.3756997,
        "tags": {
          "amenity": "restaurant",
          "brand": "Round Table Pizza",
          "brand:wikidata": "Q7371139",
          "cuisine": "pizza",
          "name": "Round Table Pizza"
        }
      }
    },
    {
      "id": "9333723171",
      "name": "GK Mongolian BBQ",
      "lat": 38.0572545,
      "lng": -121.3758024,
      "category": "restaurant",
      "external_url": "https://www.gkmongolianbbq.com/",
      "description": null,
      "open_status": "unknown",
      "confidence": "low",
      "raw": {
        "type": "node",
        "id": 9333723171,
        "lat": 38.0572545,
        "lon": -121.3758024,
        "tags": {
          "amenity": "restaurant",
          "cuisine": "mongolian_grill",
          "name": "GK Mongolian BBQ",
          "website": "https://www.gkmongolianbbq.com/"
        }
      }
    },
    {
      "id": "9333723177",
      "name": "Moo Moo's Burger Barn",
      "lat": 38.0568464,
      "lng": -121.3758933,
      "category": "fast_food",
      "external_url": null,
      "description": null,
      "open_status": "unknown",
      "confidence": "low",
      "raw": {
        "type": "node",
        "id": 9333723177,
        "lat": 38.0568464,
        "lon": -121.3758933,
        "tags": {
          "amenity": "fast_food",
          "cuisine": "burger",
          "name": "Moo Moo's Burger Barn"
        }
      }
    },
    {
      "id": "9333723183",
      "name": "Chipotle",
      "lat": 38.0539598,
      "lng": -121.3746808,
      "category": "fast_food",
      "external_url": "https://locations.chipotle.com/ca/stockton/10710-trinity-pkwy",
      "description": null,
      "open_status": "unknown",
      "confidence": "low",
      "raw": {
        "type": "node",
        "id": 9333723183,
        "lat": 38.0539598,
        "lon": -121.3746808,
        "tags": {
          "addr:city": "Stockton",
          "addr:housenumber": "10710",
          "addr:postcode": "95219",
          "addr:state": "CA",
          "addr:street": "Trinity Parkway",
          "amenity": "fast_food",
          "brand": "Chipotle",
          "brand:wikidata": "Q465751",
          "cuisine": "mexican",
          "name": "Chipotle",
          "official_name": "Chipotle Mexican Grill",
          "phone": "+1 209-390-1023",
          "takeaway": "yes",
          "website": "https://locations.chipotle.com/ca/stockton/10710-trinity-pkwy"
        }
      }
    },
    {
      "id": "9333723184",
      "name": "Sugar Mediterranean Bistro",
      "lat": 38.053511,
      "lng": -121.3738967,
      "category": "restaurant",
      "external_url": null,
      "description": null,
      "open_status": "unknown",
      "confidence": "low",
      "raw": {
        "type": "node",
        "id": 9333723184,
        "lat": 38.053511,
        "lon": -121.3738967,
        "tags": {
          "amenity": "restaurant",
          "cuisine": "mediterranean",
          "name": "Sugar Mediterranean Bistro"
        }
      }
    },
    {
      "id": "9333723185",
      "name": "El Pollo Loco",
      "lat": 38.0521869,
      "lng": -121.3748342,
      "category": "fast_food",
      "external_url": "https://restaurants.elpolloloco.com/ca/stockton/10506-trinity-pkwy",
      "description": null,
      "open_status": "unknown",
      "confidence": "low",
      "raw": {
        "type": "node",
        "id": 9333723185,
        "lat": 38.0521869,
        "lon": -121.3748342,
        "tags": {
          "addr:city": "Stockton",
          "addr:housenumber": "10506",
          "addr:postcode": "95219",
          "addr:state": "CA",
          "addr:street": "Trinity Parkway",
          "amenity": "fast_food",
          "brand": "El Pollo Loco",
          "brand:wikidata": "Q2353849",
          "craft": "caterer",
          "cuisine": "mexican",
          "drive_through": "yes",
          "name": "El Pollo Loco",
          "opening_hours": "Mo-Su 09:00-23:00",
          "operator": "Norcal Chicken Inc.",
          "phone": "+1-209-478-1664",
          "ref": "3771",
          "takeaway": "yes",
          "website": "https://restaurants.elpolloloco.com/ca/stockton/10506-trinity-pkwy"
        }
      }
    },
    {
      "id": "9333723189",
      "name": "Sharetea",
      "lat": 38.0489264,
      "lng": -121.3732281,
      "category": "cafe",
      "external_url": null,
      "description": null,
      "open_status": "unknown",
      "confidence": "low",
      "raw": {
        "type": "node",
        "id": 9333723189,
        "lat": 38.0489264,
        "lon": -121.3732281,
        "tags": {
          "amenity": "cafe",
          "brand": "Sharetea",
          "brand:wikidata": "Q64827032",
          "cuisine": "bubble_tea",
          "name": "Sharetea",
          "name:en": "Sharetea",
          "name:zh": "歇腳亭",
          "takeaway": "yes"
        }
      }
    },
    {
      "id": "9333723193",
      "name": "Starbucks",
      "lat": 38.0521441,
      "lng": -121.3726712,
      "category": "cafe",
      "external_url": "https://www.starbucks.com/store-locator/store/15059/target-stockton-north-1862-10424-trinity-pkwy-stockton-ca-952197225-us",
      "description": null,
      "open_status": "unknown",
      "confidence": "low",
      "raw": {
        "type": "node",
        "id": 9333723193,
        "lat": 38.0521441,
        "lon": -121.3726712,
        "tags": {
          "addr:city": "Stockton",
          "addr:housenumber": "10424",
          "addr:postcode": "95219",
          "addr:state": "CA",
          "addr:street": "Trinity Parkway",
          "amenity": "cafe",
          "branch": "Target Stockton NORTH 1862",
          "brand": "Starbucks",
          "brand:wikidata": "Q37158",
          "cuisine": "coffee_shop",
          "name": "Starbucks",
          "official_name": "Starbucks Coffee",
          "phone": "+1 209-235-0251",
          "ref": "15059",
          "takeaway": "yes",
          "website": "https://www.starbucks.com/store-locator/store/15059/target-stockton-north-1862-10424-trinity-pkwy-stockton-ca-952197225-us"
        }
      }
    },
    {
      "id": "9333723194",
      "name": "Raw Sushi Bistro",
      "lat": 38.0538244,
      "lng": -121.372874,
      "category": "restaurant",
      "external_url": "https://www.rawsushibar.com/stockton-location",
      "description": null,
      "open_status": "unknown",
      "confidence": "low",
      "raw": {
        "type": "node",
        "id": 9333723194,
        "lat": 38.0538244,
        "lon": -121.372874,
        "tags": {
          "addr:city": "Stockton",
          "addr:housenumber": "10742",
          "addr:postcode": "95219",
          "addr:state": "CA",
          "addr:street": "Trinity Parkway",
          "addr:unit": "D",
          "amenity": "restaurant",
          "bar": "yes",
          "branch": "Stockton",
          "brand": "Raw Sushi Bistro",
          "cuisine": "sushi",
          "name": "Raw Sushi Bistro",
          "opening_hours": "Mo-Tu 16:30-20:30; We-Th 11:30-14:00, 16:30-20:30; Fr 11:30-14:00, 16:00-21:00; Sa 11:30-14:00, 16:00-20:30; Su 12:00-20:00",
          "phone": "+1 209 954 9729",
          "smoking": "no",
          "website": "https://www.rawsushibar.com/stockton-location",
          "website:menu": "https://www.rawsushibar.com/stockton-menu"
        }
      }
    },
    {
      "id": "9333723197",
      "name": "Wingstop",
      "lat": 38.0539556,
      "lng": -121.3729252,
      "category": "fast_food",
      "external_url": null,
      "description": null,
      "open_status": "unknown",
      "confidence": "low",
      "raw": {
        "type": "node",
        "id": 9333723197,
        "lat": 38.0539556,
        "lon": -121.3729252,
        "tags": {
          "addr:city": "Stockton",
          "addr:housenumber": "10742",
          "addr:postcode": "95219",
          "addr:state": "CA",
          "addr:street": "Trinity Parkway",
          "addr:unit": "C",
          "amenity": "fast_food",
          "branch": "Stockton Trinity",
          "brand": "Wingstop",
          "brand:wikidata": "Q8025339",
          "cuisine": "wings",
          "name": "Wingstop",
          "phone": "+1 209-474-3238",
          "takeaway": "yes"
        }
      }
    },
    {
      "id": "9333723210",
      "name": "The Patío Food Court",
      "lat": 37.9986332,
      "lng": -121.3126231,
      "category": "unknown",
      "external_url": null,
      "description": null,
      "open_status": "unknown",
      "confidence": "low",
      "raw": {
        "type": "node",
        "id": 9333723210,
        "lat": 37.9986332,
        "lon": -121.3126231,
        "tags": {
          "amenity": "food_court",
          "name": "The Patío Food Court"
        }
      }
    },
    {
      "id": "9335746864",
      "name": "Tea Daze",
      "lat": 37.9874106,
      "lng": -121.311517,
      "category": "cafe",
      "external_url": null,
      "description": null,
      "open_status": "unknown",
      "confidence": "low",
      "raw": {
        "type": "node",
        "id": 9335746864,
        "lat": 37.9874106,
        "lon": -121.311517,
        "tags": {
          "amenity": "cafe",
          "cuisine": "bubble_tea",
          "name": "Tea Daze"
        }
      }
    },
    {
      "id": "9335746865",
      "name": "Poppy Coffee",
      "lat": 37.9870769,
      "lng": -121.3112785,
      "category": "cafe",
      "external_url": null,
      "description": null,
      "open_status": "unknown",
      "confidence": "low",
      "raw": {
        "type": "node",
        "id": 9335746865,
        "lat": 37.9870769,
        "lon": -121.3112785,
        "tags": {
          "amenity": "cafe",
          "cuisine": "coffee_shop",
          "name": "Poppy Coffee"
        }
      }
    },
    {
      "id": "9335746866",
      "name": "Kung Fu Tea",
      "lat": 37.9905077,
      "lng": -121.3130763,
      "category": "cafe",
      "external_url": null,
      "description": null,
      "open_status": "unknown",
      "confidence": "low",
      "raw": {
        "type": "node",
        "id": 9335746866,
        "lat": 37.9905077,
        "lon": -121.3130763,
        "tags": {
          "amenity": "cafe",
          "brand": "Kung Fu Tea",
          "brand:wikidata": "Q66023886",
          "cuisine": "bubble_tea",
          "name": "Kung Fu Tea",
          "takeaway": "yes"
        }
      }
    },
    {
      "id": "9335746868",
      "name": "Phở Saigon Bay Restaurant",
      "lat": 38.0013907,
      "lng": -121.3147663,
      "category": "restaurant",
      "external_url": null,
      "description": null,
      "open_status": "unknown",
      "confidence": "low",
      "raw": {
        "type": "node",
        "id": 9335746868,
        "lat": 38.0013907,
        "lon": -121.3147663,
        "tags": {
          "amenity": "restaurant",
          "cuisine": "noodle;vietnamese",
          "name": "Phở Saigon Bay Restaurant"
        }
      }
    },
    {
      "id": "9335746870",
      "name": "The Creamery",
      "lat": 38.0012186,
      "lng": -121.3153971,
      "category": "restaurant",
      "external_url": null,
      "description": null,
      "open_status": "unknown",
      "confidence": "low",
      "raw": {
        "type": "node",
        "id": 9335746870,
        "lat": 38.0012186,
        "lon": -121.3153971,
        "tags": {
          "amenity": "restaurant",
          "cuisine": "burger",
          "name": "The Creamery"
        }
      }
    },
    {
      "id": "9335906806",
      "name": "Happy Lemon",
      "lat": 38.0073951,
      "lng": -121.32046,
      "category": "cafe",
      "external_url": null,
      "description": null,
      "open_status": "unknown",
      "confidence": "low",
      "raw": {
        "type": "node",
        "id": 9335906806,
        "lat": 38.0073951,
        "lon": -121.32046,
        "tags": {
          "amenity": "cafe",
          "brand": "Happy Lemon",
          "brand:wikidata": "Q109968422",
          "cuisine": "bubble_tea",
          "name": "Happy Lemon",
          "name:en": "Happy Lemon",
          "name:zh": "快樂檸檬",
          "takeaway": "yes"
        }
      }
    },
    {
      "id": "9335916929",
      "name": "Quickly",
      "lat": 37.999943,
      "lng": -121.3175304,
      "category": "cafe",
      "external_url": "http://quicklyusa.com/stockton.html",
      "description": null,
      "open_status": "unknown",
      "confidence": "low",
      "raw": {
        "type": "node",
        "id": 9335916929,
        "lat": 37.999943,
        "lon": -121.3175304,
        "tags": {
          "addr:city": "Stockton",
          "addr:housenumber": "960",
          "addr:postcode": "95207",
          "addr:state": "CA",
          "addr:street": "West Robinhood Drive",
          "amenity": "cafe",
          "branch": "Stockton",
          "brand": "Quickly",
          "brand:en": "Quickly",
          "brand:wikidata": "Q3771463",
          "brand:zh": "快可立",
          "cuisine": "bubble_tea",
          "drive_through": "no",
          "name": "Quickly",
          "name:en": "Quickly",
          "name:zh": "快可立",
          "opening_hours": "11:30-21:30",
          "outdoor_seating": "no",
          "phone": "+1 209 227 8596",
          "start_date": "2014-03-20",
          "takeaway": "yes",
          "website": "http://quicklyusa.com/stockton.html",
          "website:menu": "https://quicklystockton.cloveronline.com/menu/all"
        }
      }
    },
    {
      "id": "9335983285",
      "name": "Lollicup",
      "lat": 38.0212848,
      "lng": -121.2918796,
      "category": "cafe",
      "external_url": null,
      "description": null,
      "open_status": "unknown",
      "confidence": "low",
      "raw": {
        "type": "node",
        "id": 9335983285,
        "lat": 38.0212848,
        "lon": -121.2918796,
        "tags": {
          "amenity": "cafe",
          "cuisine": "bubble_tea",
          "name": "Lollicup"
        }
      }
    },
    {
      "id": "9335983287",
      "name": "Domino's",
      "lat": 38.0216745,
      "lng": -121.2924253,
      "category": "fast_food",
      "external_url": "https://pizza.dominos.com/california/stockton/7908-west-lane-suite-219-a",
      "description": null,
      "open_status": "unknown",
      "confidence": "low",
      "raw": {
        "type": "node",
        "id": 9335983287,
        "lat": 38.0216745,
        "lon": -121.2924253,
        "tags": {
          "addr:city": "Stockton",
          "addr:housenumber": "7908",
          "addr:postcode": "95210",
          "addr:state": "CA",
          "addr:street": "West Lane",
          "addr:unit": "219 A",
          "amenity": "fast_food",
          "brand": "Domino's",
          "brand:wikidata": "Q839466",
          "cuisine": "pizza",
          "name": "Domino's",
          "opening_hours": "Mo-Th 10:00-24:00; Fr-Sa 10:00-01:00; Su 10:00-24:00",
          "phone": "+1 209-956-3030",
          "ref": "8335",
          "takeaway": "yes",
          "website": "https://pizza.dominos.com/california/stockton/7908-west-lane-suite-219-a"
        }
      }
    },
    {
      "id": "9335983288",
      "name": "GK Mongolian BBQ",
      "lat": 38.0217104,
      "lng": -121.2924659,
      "category": "restaurant",
      "external_url": "https://www.gkmongolianbbq.com/",
      "description": null,
      "open_status": "unknown",
      "confidence": "low",
      "raw": {
        "type": "node",
        "id": 9335983288,
        "lat": 38.0217104,
        "lon": -121.2924659,
        "tags": {
          "amenity": "restaurant",
          "cuisine": "mongolian_grill",
          "name": "GK Mongolian BBQ",
          "website": "https://www.gkmongolianbbq.com/"
        }
      }
    },
    {
      "id": "9335983289",
      "name": "Sushi House Buffet",
      "lat": 38.0218232,
      "lng": -121.292536,
      "category": "restaurant",
      "external_url": null,
      "description": null,
      "open_status": "unknown",
      "confidence": "low",
      "raw": {
        "type": "node",
        "id": 9335983289,
        "lat": 38.0218232,
        "lon": -121.292536,
        "tags": {
          "amenity": "restaurant",
          "cuisine": "japanese;chinese",
          "name": "Sushi House Buffet"
        }
      }
    },
    {
      "id": "9335983292",
      "name": "Bigworm's Bakery and Deli",
      "lat": 38.0239253,
      "lng": -121.2938165,
      "category": "restaurant",
      "external_url": null,
      "description": null,
      "open_status": "unknown",
      "confidence": "low",
      "raw": {
        "type": "node",
        "id": 9335983292,
        "lat": 38.0239253,
        "lon": -121.2938165,
        "tags": {
          "amenity": "restaurant",
          "cuisine": "sandwich;asian;fusion",
          "name": "Bigworm's Bakery and Deli"
        }
      }
    },
    {
      "id": "9335983293",
      "name": "Cambodian Restaurant",
      "lat": 38.0227151,
      "lng": -121.2945115,
      "category": "restaurant",
      "external_url": null,
      "description": null,
      "open_status": "unknown",
      "confidence": "low",
      "raw": {
        "type": "node",
        "id": 9335983293,
        "lat": 38.0227151,
        "lon": -121.2945115,
        "tags": {
          "amenity": "restaurant",
          "cuisine": "cambodian",
          "name": "Cambodian Restaurant"
        }
      }
    },
    {
      "id": "9335983306",
      "name": "Starbucks",
      "lat": 38.0205283,
      "lng": -121.2955627,
      "category": "cafe",
      "external_url": "https://www.starbucks.com/store-locator/store/14106/hammer-west-stockton-1440-east-hammer-lane-stockton-ca-952103049-us",
      "description": null,
      "open_status": "unknown",
      "confidence": "low",
      "raw": {
        "type": "node",
        "id": 9335983306,
        "lat": 38.0205283,
        "lon": -121.2955627,
        "tags": {
          "addr:city": "Stockton",
          "addr:housenumber": "1440",
          "addr:postcode": "95210",
          "addr:state": "CA",
          "addr:street": "East Hammer Lane",
          "air_conditioning": "yes",
          "amenity": "cafe",
          "branch": "Hammer & West - Stockton",
          "brand": "Starbucks",
          "brand:wikidata": "Q37158",
          "cuisine": "coffee_shop",
          "indoor_seating": "yes",
          "internet_access": "wlan",
          "name": "Starbucks",
          "official_name": "Starbucks Coffee",
          "opening_hours": "Mo-Su 04:30-20:00",
          "outdoor_seating": "yes",
          "payment:cash": "yes",
          "payment:credit_cards": "yes",
          "payment:debit_cards": "yes",
          "phone": "+1 209-474-7094",
          "smoking": "no",
          "takeaway": "yes",
          "website": "https://www.starbucks.com/store-locator/store/14106/hammer-west-stockton-1440-east-hammer-lane-stockton-ca-952103049-us",
          "wheelchair": "yes"
        }
      }
    },
    {
      "id": "9335983310",
      "name": "Firehouse Subs",
      "lat": 38.0205117,
      "lng": -121.2941016,
      "category": "fast_food",
      "external_url": null,
      "description": null,
      "open_status": "unknown",
      "confidence": "low",
      "raw": {
        "type": "node",
        "id": 9335983310,
        "lat": 38.0205117,
        "lon": -121.2941016,
        "tags": {
          "amenity": "fast_food",
          "brand": "Firehouse Subs",
          "brand:wikidata": "Q5451873",
          "cuisine": "sandwich",
          "indoor_seating": "yes",
          "name": "Firehouse Subs",
          "opening_hours": "Mo-Su 10:30-21:00",
          "outdoor_seating": "no",
          "takeaway": "yes"
        }
      }
    },
    {
      "id": "9335983311",
      "name": "Green Papaya",
      "lat": 38.0200884,
      "lng": -121.2931471,
      "category": "restaurant",
      "external_url": null,
      "description": null,
      "open_status": "unknown",
      "confidence": "low",
      "raw": {
        "type": "node",
        "id": 9335983311,
        "lat": 38.0200884,
        "lon": -121.2931471,
        "tags": {
          "amenity": "restaurant",
          "cuisine": "thai",
          "name": "Green Papaya"
        }
      }
    },
    {
      "id": "9335983312",
      "name": "Manilla Express",
      "lat": 38.0200499,
      "lng": -121.2932074,
      "category": "restaurant",
      "external_url": null,
      "description": null,
      "open_status": "unknown",
      "confidence": "low",
      "raw": {
        "type": "node",
        "id": 9335983312,
        "lat": 38.0200499,
        "lon": -121.2932074,
        "tags": {
          "amenity": "restaurant",
          "cuisine": "filipino",
          "name": "Manilla Express"
        }
      }
    },
    {
      "id": "9335983313",
      "name": "Prosperity Szechuan Cuisine",
      "lat": 38.0200293,
      "lng": -121.2933409,
      "category": "restaurant",
      "external_url": null,
      "description": null,
      "open_status": "unknown",
      "confidence": "low",
      "raw": {
        "type": "node",
        "id": 9335983313,
        "lat": 38.0200293,
        "lon": -121.2933409,
        "tags": {
          "amenity": "restaurant",
          "cuisine": "chinese",
          "name": "Prosperity Szechuan Cuisine"
        }
      }
    },
    {
      "id": "9335983314",
      "name": "JJ Fish and Chicken",
      "lat": 38.0201407,
      "lng": -121.2930545,
      "category": "restaurant",
      "external_url": null,
      "description": null,
      "open_status": "unknown",
      "confidence": "low",
      "raw": {
        "type": "node",
        "id": 9335983314,
        "lat": 38.0201407,
        "lon": -121.2930545,
        "tags": {
          "amenity": "restaurant",
          "name": "JJ Fish and Chicken"
        }
      }
    },
    {
      "id": "9335983315",
      "name": "Bonchon Chicken",
      "lat": 38.0199072,
      "lng": -121.2935333,
      "category": "restaurant",
      "external_url": null,
      "description": null,
      "open_status": "unknown",
      "confidence": "low",
      "raw": {
        "type": "node",
        "id": 9335983315,
        "lat": 38.0199072,
        "lon": -121.2935333,
        "tags": {
          "amenity": "restaurant",
          "brand": "Bonchon Chicken",
          "brand:wikidata": "Q4941248",
          "cuisine": "chicken;korean;sushi",
          "name": "Bonchon Chicken"
        }
      }
    },
    {
      "id": "9335983316",
      "name": "Midnight at Burnie's Drive-Up",
      "lat": 38.0227508,
      "lng": -121.3568445,
      "category": "fast_food",
      "external_url": null,
      "description": null,
      "open_status": "unknown",
      "confidence": "low",
      "raw": {
        "type": "node",
        "id": 9335983316,
        "lat": 38.0227508,
        "lon": -121.3568445,
        "tags": {
          "amenity": "fast_food",
          "cuisine": "burger",
          "name": "Midnight at Burnie's Drive-Up"
        }
      }
    },
    {
      "id": "9336041009",
      "name": "Ssong's Hotdog",
      "lat": 37.9905397,
      "lng": -121.3216925,
      "category": "fast_food",
      "external_url": null,
      "description": null,
      "open_status": "unknown",
      "confidence": "low",
      "raw": {
        "type": "node",
        "id": 9336041009,
        "lat": 37.9905397,
        "lon": -121.3216925,
        "tags": {
          "amenity": "fast_food",
          "cuisine": "hot_dog",
          "name": "Ssong's Hotdog"
        }
      }
    },
    {
      "id": "9341606531",
      "name": "Panda Express",
      "lat": 37.9991767,
      "lng": -121.3153847,
      "category": "fast_food",
      "external_url": "https://www.pandaexpress.com/locations/ca/stockton/5350-pacific-ave-space-j1",
      "description": null,
      "open_status": "unknown",
      "confidence": "low",
      "raw": {
        "type": "node",
        "id": 9341606531,
        "lat": 37.9991767,
        "lon": -121.3153847,
        "tags": {
          "addr:city": "Stockton",
          "addr:housenumber": "5350",
          "addr:postcode": "95207",
          "addr:state": "CA",
          "addr:street": "Pacific Avenue",
          "addr:unit": "J1",
          "amenity": "fast_food",
          "branch": "Pacific & Robinhood",
          "brand": "Panda Express",
          "brand:wikidata": "Q1358690",
          "cuisine": "chinese",
          "drive_through": "no",
          "name": "Panda Express",
          "opening_hours": "Mo-Su 10:30-22:30",
          "phone": "+1 209-476-1908",
          "takeaway": "yes",
          "website": "https://www.pandaexpress.com/locations/ca/stockton/5350-pacific-ave-space-j1"
        }
      }
    },
    {
      "id": "9344760683",
      "name": "Seoul Soon Dubu",
      "lat": 37.9707904,
      "lng": -121.300093,
      "category": "restaurant",
      "external_url": "https://seoulsoontobu.com",
      "description": null,
      "open_status": "unknown",
      "confidence": "low",
      "raw": {
        "type": "node",
        "id": 9344760683,
        "lat": 37.9707904,
        "lon": -121.300093,
        "tags": {
          "addr:city": "Stockton",
          "addr:housenumber": "2041",
          "addr:postcode": "95204",
          "addr:state": "CA",
          "addr:street": "North Pacific Avenue",
          "amenity": "restaurant",
          "cuisine": "korean",
          "name": "Seoul Soon Dubu",
          "name:en": "Seoul Soon Dubu",
          "name:ko": "서울 순두부",
          "name:ko-Kore": "서울 純豆腐",
          "name:ko-Latn": "Seoul Sundubu",
          "opening_hours": "Mo,We-Th 12:00-14:30,17:00-21:30; Fr-Sa 12:00-21:00; Su 16:00-21:00",
          "phone": "+1-209-462-8989",
          "website": "https://seoulsoontobu.com"
        }
      }
    },
    {
      "id": "9348967918",
      "name": "Eddie's Pizza Cafe",
      "lat": 38.0205772,
      "lng": -121.2960695,
      "category": "restaurant",
      "external_url": "http://adoraimages.blob.core.windows.net/content/eddies/online/index.html",
      "description": null,
      "open_status": "unknown",
      "confidence": "low",
      "raw": {
        "type": "node",
        "id": 9348967918,
        "lat": 38.0205772,
        "lon": -121.2960695,
        "tags": {
          "addr:city": "Stockton",
          "addr:housenumber": "1304",
          "addr:state": "CA",
          "addr:street": "East Hammer Lane",
          "amenity": "restaurant",
          "cuisine": "pizza",
          "indoor_seating": "yes",
          "name": "Eddie's Pizza Cafe",
          "outdoor_seating": "no",
          "website": "http://adoraimages.blob.core.windows.net/content/eddies/online/index.html"
        }
      }
    },
    {
      "id": "9349733843",
      "name": "Jack in the Box",
      "lat": 38.002761,
      "lng": -121.2849183,
      "category": "fast_food",
      "external_url": "https://locations.jackinthebox.com/us/ca/stockton/1916-e-march-ln",
      "description": null,
      "open_status": "unknown",
      "confidence": "low",
      "raw": {
        "type": "node",
        "id": 9349733843,
        "lat": 38.002761,
        "lon": -121.2849183,
        "tags": {
          "addr:city": "Stockton",
          "addr:housenumber": "1916",
          "addr:postcode": "95210",
          "addr:state": "CA",
          "addr:street": "East March Lane",
          "amenity": "fast_food",
          "brand": "Jack in the Box",
          "brand:wikidata": "Q1538507",
          "cuisine": "burger",
          "drive_through": "yes",
          "name": "Jack in the Box",
          "phone": "+1 209-662-8317",
          "takeaway": "yes",
          "website": "https://locations.jackinthebox.com/us/ca/stockton/1916-e-march-ln"
        }
      }
    },
    {
      "id": "9351075510",
      "name": "Subway",
      "lat": 38.0022032,
      "lng": -121.2886798,
      "category": "fast_food",
      "external_url": "https://restaurants.subway.com/united-states/ca/stockton/1540-e-march-lane",
      "description": null,
      "open_status": "unknown",
      "confidence": "low",
      "raw": {
        "type": "node",
        "id": 9351075510,
        "lat": 38.0022032,
        "lon": -121.2886798,
        "tags": {
          "addr:city": "Stockton",
          "addr:housenumber": "1540",
          "addr:postcode": "95210",
          "addr:state": "CA",
          "addr:street": "East March Lane",
          "addr:unit": "B3",
          "amenity": "fast_food",
          "brand": "Subway",
          "brand:wikidata": "Q244457",
          "cuisine": "sandwich",
          "drive_through": "no",
          "indoor_seating": "yes",
          "name": "Subway",
          "opening_hours": "Mo-Fr 07:00-21:30; Sa,Su 08:00-21:30",
          "outdoor_seating": "no",
          "phone": "+1 209-951-9698",
          "takeaway": "yes",
          "website": "https://restaurants.subway.com/united-states/ca/stockton/1540-e-march-lane"
        }
      }
    },
    {
      "id": "9514445709",
      "name": "Mac Phở",
      "lat": 38.0205809,
      "lng": -121.2733646,
      "category": "restaurant",
      "external_url": null,
      "description": null,
      "open_status": "unknown",
      "confidence": "low",
      "raw": {
        "type": "node",
        "id": 9514445709,
        "lat": 38.0205809,
        "lon": -121.2733646,
        "tags": {
          "amenity": "restaurant",
          "cuisine": "noodle",
          "name": "Mac Phở"
        }
      }
    },
    {
      "id": "9514445710",
      "name": "The Crab Zone",
      "lat": 38.0205803,
      "lng": -121.2738069,
      "category": "restaurant",
      "external_url": null,
      "description": null,
      "open_status": "unknown",
      "confidence": "low",
      "raw": {
        "type": "node",
        "id": 9514445710,
        "lat": 38.0205803,
        "lon": -121.2738069,
        "tags": {
          "amenity": "restaurant",
          "cuisine": "seafood",
          "name": "The Crab Zone"
        }
      }
    },